City_ID,City,Lat,Lng,Max Temp,Humidity,Cloudiness,Wind Speed,Country,Date
0,bethel,41.3712,-73.414,11.41,63,0,2.57,US,1699053973
1,waitangi,-43.9535,-176.5597,16.57,94,82,3.13,NZ,1699053963
2,bilibino,68.0546,166.4372,-12.94,94,100,1.62,RU,1699053970
3,luderitz,-26.6481,15.1594,15.87,81,0,5.3,NA,1699054072
4,west island,-12.1568,96.8225,24.99,83,75,5.66,CC,1699053994
5,kayyerkan,69.3786,87.7439,-8.72,78,100,11.2,RU,1699054272
6,kingston,17.997,-76.7936,28.53,84,20,5.66,JM,1699054014
7,edinburgh of the seven seas,-37.0676,-12.3116,12.4,68,65,15.71,SH,1699053965
8,minas de marcona,-15.2119,-75.1103,15.46,73,8,5.82,PE,1699054050
9,brigantine,39.4101,-74.3646,11.68,71,0,2.06,US,1699054273
10,hastings,50.8552,0.5729,9.32,50,22,6.52,GB,1699054273
11,whangarei,-35.7317,174.3239,22.28,40,7,0.81,NZ,1699054273
12,puerto ayora,-0.7393,-90.3518,25.31,88,66,2.24,EC,1699053986
13,vila velha,-20.3297,-40.2925,26.08,86,20,7.2,BR,1699054274
14,ngorongoro,-3.2397,35.4875,11.72,96,100,2.27,TZ,1699054274
15,adamstown,-25.066,-130.1015,22.97,77,100,6.0,PN,1699053966
16,georgetown,5.4112,100.3354,25.96,92,20,1.54,MY,1699053710
17,shihezi,44.3,86.0333,1.18,37,20,6.9,CN,1699054275
18,grytviken,-54.2811,-36.5092,2.11,94,44,4.84,GS,1699053983
19,blackmans bay,-43.0167,147.3167,13.18,60,62,0.45,AU,1699053977
20,punta arenas,-53.15,-70.9167,10.06,46,0,3.6,CL,1699053975
21,oltinko'l,40.8011,72.1634,11.87,24,5,1.7,UZ,1699054276
22,bungoma,0.5635,34.5606,17.04,95,100,1.21,KE,1699054277
23,port-aux-francais,-49.35,70.2167,2.41,64,64,13.96,TF,1699053969
24,lihue,21.9789,-159.3672,29.09,65,0,5.14,US,1699054067
25,klyuchi,52.2667,79.1667,-3.64,77,99,5.54,RU,1699054020
26,key largo,25.0865,-80.4473,25.0,85,99,11.05,US,1699054209
27,nieuw amsterdam,5.8833,-55.0833,28.34,80,20,2.57,SR,1699054278
28,la'ie,21.6477,-157.9253,31.98,65,5,1.79,US,1699054278
29,uberlandia,-18.9186,-48.2772,24.26,71,92,2.05,BR,1699054224
30,zadar,44.1197,15.2422,12.34,82,40,8.75,HR,1699054279
31,miri,4.4148,114.0089,25.08,94,40,1.03,MY,1699054279
32,mount gambier,-37.8333,140.7667,13.26,51,82,5.82,AU,1699054074
33,sao felix do xingu,-6.6447,-51.995,22.53,94,78,0.65,BR,1699054087
34,emerald,-23.5333,148.1667,24.08,71,98,4.34,AU,1699054144
35,kapoeta,4.7717,33.5903,25.48,65,94,3.4,SS,1699054281
36,aykhal,66.0,111.5,-24.97,100,66,0.93,RU,1699054281
37,salaga,8.5508,-0.5188,27.05,65,60,3.1,GH,1699054281
38,saint-philippe,-21.3585,55.7679,22.77,84,67,1.15,RE,1699054012
39,anadyr,64.75,177.4833,-4.72,86,75,4.0,RU,1699054061
40,crane,31.3974,-102.3501,22.07,32,0,6.26,US,1699053999
41,stanley,54.868,-1.6985,5.29,93,20,5.14,GB,1699053890
42,hamilton,39.1834,-84.5333,14.13,38,0,2.57,US,1699053667
43,atafu village,-8.5421,-172.5159,28.35,74,100,5.74,TK,1699054015
44,kiama,-34.6833,150.8667,19.44,91,100,1.34,AU,1699054283
45,grootfontein,-19.5667,18.1167,20.76,60,72,2.06,NA,1699054283
46,coruripe,-10.1256,-36.1756,25.89,82,89,5.78,BR,1699054284
47,ungsang-nodongjagu,42.3578,130.4622,3.66,55,15,2.3,KP,1699054284
48,fort bragg,35.139,-79.006,11.32,56,0,0.0,US,1699054284
49,papatowai,-46.5619,169.4708,13.71,65,100,5.42,NZ,1699054003
50,ilulissat,69.2167,-51.1,-1.99,50,78,7.2,GL,1699054002
51,ulanhot,46.0833,122.0833,-3.95,53,91,2.08,CN,1699054285
52,puerto rosario,-24.45,-57.0833,15.81,74,2,2.02,PY,1699054285
53,talnakh,69.4865,88.3972,-8.77,93,100,10.43,RU,1699053968
54,salekhard,66.53,66.6019,-7.02,91,100,4.95,RU,1699054286
55,xilin hot,43.9667,116.0333,2.36,54,40,3.18,CN,1699054286
56,rio hato,8.3833,-80.1667,27.1,87,100,1.79,PA,1699054287
57,hawaiian paradise park,19.5933,-154.9731,28.73,69,20,4.63,US,1699054004
58,port mathurin,-19.6833,63.4167,24.61,77,84,6.53,MU,1699053996
59,port elizabeth,-33.918,25.5701,17.4,84,0,5.14,ZA,1699053972
60,tangalle,6.024,80.7911,24.78,88,97,0.07,LK,1699054288
61,koster,-25.863,26.8976,15.81,52,100,3.72,ZA,1699054289
62,albany,42.6001,-73.9662,10.33,51,69,3.05,US,1699053732
63,hermanus,-34.4187,19.2345,16.0,88,35,5.47,ZA,1699053978
64,pisco,-13.7,-76.2167,20.03,73,10,6.17,PE,1699053869
65,winkler,49.1817,-97.941,-2.88,68,6,1.54,CA,1699054124
66,genhe,50.7833,121.5167,-13.61,45,97,0.22,CN,1699054290
67,muisne,0.6,-80.0333,25.14,84,68,3.59,EC,1699054290
68,olpad,21.3333,72.75,23.58,39,8,3.36,IN,1699054290
69,puerto natales,-51.7236,-72.4875,6.11,85,53,2.19,CL,1699053974
70,newman,37.3138,-121.0208,26.83,37,5,1.34,US,1699053975
71,college,64.8569,-147.8028,-3.03,61,75,6.69,US,1699053977
72,queenstown,-31.8976,26.8753,19.79,65,100,1.22,ZA,1699053974
73,port lincoln,-34.7333,135.8667,15.08,65,47,8.14,AU,1699053962
74,saipan,15.1355,145.701,30.39,74,40,8.75,MP,1699054004
75,dudinka,69.4058,86.1778,-8.54,92,100,12.52,RU,1699054009
76,longyearbyen,78.2186,15.6401,-7.09,93,75,1.54,SJ,1699053965
77,ystad,55.4297,13.8204,8.5,90,100,2.62,SE,1699054292
78,pandan,14.0453,124.1694,27.83,83,43,2.77,PH,1699053969
79,afaahiti,-17.75,-149.2833,26.93,83,81,5.64,PF,1699054016
80,dakhla,23.6848,-15.958,20.65,89,0,9.1,EH,1699054016
81,cide,41.8921,33.0044,19.41,60,59,4.84,TR,1699054294
82,draganesti-olt,44.1667,24.5333,13.93,93,100,2.29,RO,1699054294
83,aasiaat,68.7098,-52.8699,-3.96,88,100,2.68,GL,1699054295
84,hobyo,5.3505,48.5268,26.9,82,67,3.13,SO,1699054295
85,zhob,31.3411,69.4481,13.5,32,84,0.71,PK,1699054295
86,avarua,-21.2078,-159.775,24.03,64,75,7.2,CK,1699053995
87,vila do maio,15.1333,-23.2167,26.44,80,47,7.93,CV,1699054296
88,cicero dantas,-10.6,-38.3833,24.54,74,93,3.9,BR,1699054296
89,thompson,55.7435,-97.8558,-8.91,73,40,4.63,CA,1699053969
90,turpan,42.9333,89.1667,9.54,37,12,4.01,CN,1699054298
91,ushuaia,-54.8,-68.3,6.81,57,75,4.63,AR,1699053889
92,ola,59.5833,151.2833,0.08,78,100,13.08,RU,1699054298
93,kosciusko,33.0576,-89.5876,13.79,32,0,1.61,US,1699054157
94,dombarovskiy,50.7587,59.5386,6.67,78,100,2.24,RU,1699054299
95,columbia,34.0007,-81.0348,13.0,49,0,0.0,US,1699054299
96,ketchikan,55.3422,-131.6461,9.26,100,100,0.0,US,1699054300
97,new norfolk,-42.7826,147.0587,13.84,44,34,1.45,AU,1699054300
98,sungai penuh,-2.0833,101.3833,19.63,91,42,0.83,ID,1699054300
99,nemuro,43.3236,145.575,10.31,85,100,5.65,JP,1699054023
100,mocimboa,-11.3167,40.35,25.07,78,100,4.74,MZ,1699054301
101,dunedin,-45.8742,170.5036,13.78,79,100,1.34,NZ,1699054211
102,invercargill,-46.4,168.35,13.9,77,100,5.81,NZ,1699054006
103,codrington,-38.2667,141.9667,13.68,53,97,7.77,AU,1699054301
104,fuerte olimpo,-21.0415,-57.8738,19.34,75,78,1.33,PY,1699054302
105,bredasdorp,-34.5322,20.0403,15.79,86,4,5.7,ZA,1699053968
106,dickinson,29.4608,-95.0513,22.31,78,0,4.12,US,1699054302
107,galesong,-5.3166,119.3661,26.01,70,74,2.61,ID,1699054065
108,iqaluit,63.7506,-68.5145,-2.15,64,75,8.23,CA,1699053961
109,alaghsas,17.0187,8.0168,25.4,17,1,4.91,NE,1699054303
110,westport,41.1415,-73.3579,12.11,65,0,6.69,US,1699054033
111,tchintabaraden,15.8969,5.7985,27.3,15,94,3.51,NE,1699054303
112,tommot,58.9564,126.2925,-16.21,94,100,3.41,RU,1699054304
113,xuanzhou,30.9525,118.7553,20.55,65,88,0.39,CN,1699054304
114,howard springs,-12.497,131.047,31.01,73,9,1.7,AU,1699054304
115,nantucket,41.2835,-70.0995,10.56,68,0,7.2,US,1699054229
116,st. john's,47.5649,-52.7093,4.43,83,75,3.09,CA,1699053861
117,yellowknife,62.456,-114.3525,-6.44,98,100,4.63,CA,1699053906
118,rio grande,-32.035,-52.0986,16.06,89,76,12.51,BR,1699054066
119,muynoq,43.7683,59.0214,11.46,36,100,2.56,UZ,1699054305
120,jammu,32.7333,74.8667,17.24,37,0,1.88,IN,1699054306
121,parkano,62.0167,23.0167,3.09,98,100,4.94,FI,1699054306
122,kalaleh,37.3807,55.4916,19.13,38,25,2.87,IR,1699054306
123,romanovskaya,47.5426,42.0285,13.33,68,100,3.13,RU,1699054307
124,beyneu,45.3167,55.2,10.59,50,26,4.1,KZ,1699054307
125,kirensk,57.7853,108.1119,-15.58,83,48,0.89,RU,1699054307
126,zuera,41.8677,-0.7898,7.73,66,75,0.34,ES,1699054307
127,saudarkrokur,65.7461,-19.6394,1.11,91,100,2.68,IS,1699054307
128,port alfred,-33.5906,26.891,16.21,93,100,1.79,ZA,1699054050
129,portland,45.5234,-122.6762,18.28,76,100,1.54,US,1699053692
130,brokopondo,4.75,-55.1667,27.14,78,37,5.35,SR,1699054308
131,happy valley-goose bay,53.3168,-60.3315,2.17,64,40,4.12,CA,1699053975
132,lompoc,34.6391,-120.4579,30.43,25,0,5.14,US,1699054035
133,walvis bay,-22.9575,14.5053,16.16,88,10,2.06,NA,1699054042
134,praia da vitoria,38.7333,-27.0667,18.2,88,75,10.71,PT,1699053860
135,santa rosa,14.3122,121.1114,29.48,84,28,2.31,PH,1699054063
136,kristiansund,63.1115,7.732,8.03,53,75,5.66,NO,1699054309
137,nybro,56.7446,15.9071,8.47,96,100,1.7,SE,1699054309
138,puerto maldonado,-12.6,-69.1833,25.22,78,75,0.0,PE,1699054002
139,ujae,8.9322,165.7642,28.36,71,98,7.36,MH,1699054310
140,ciudad lazaro cardenas,17.9583,-102.2,27.67,83,43,1.97,MX,1699054251
141,vorgashor,67.5833,63.95,-8.06,95,100,6.94,RU,1699053991
142,port macquarie,-31.4333,152.9167,22.16,75,55,3.38,AU,1699054311
143,keflavik,64.0049,-22.5624,3.24,75,0,7.72,IS,1699053998
144,nova sintra,14.8667,-24.7167,24.11,77,34,9.56,CV,1699053969
145,lebu,-37.6167,-73.65,10.86,80,5,7.16,CL,1699054006
146,badger,64.8,-147.5333,-3.07,63,100,6.69,US,1699053989
147,san angelo,31.4638,-100.437,23.36,48,0,5.66,US,1699054209
148,santa elena de uairen,4.6167,-61.1333,22.67,76,100,0.86,VE,1699054060
149,zheleznodorozhnyy,55.7503,38.0042,2.23,82,8,4.02,RU,1699054312
150,mount pearl,47.5166,-52.7813,4.62,84,75,3.09,CA,1699054198
151,wailua homesteads,22.0669,-159.378,28.75,65,0,5.14,US,1699053974
152,plettenberg bay,-34.0527,23.3716,16.94,77,77,4.9,ZA,1699054313
153,ulsteinvik,62.3432,5.8487,10.07,63,100,3.93,NO,1699054002
154,wanning,18.8003,110.3967,24.66,86,37,2.17,CN,1699054055
155,divo,5.8397,-5.36,22.56,99,62,1.0,CI,1699054313
156,namibe,-15.1961,12.1522,19.76,79,7,1.64,AO,1699053966
157,vilyuchinsk,52.9306,158.4028,4.96,88,100,1.17,RU,1699053986
158,bandarbeyla,9.4942,50.8122,26.37,84,43,5.51,SO,1699054314
159,navlya,52.8281,34.4989,6.31,74,48,5.07,RU,1699054314
160,isafjordur,66.0755,-23.124,3.19,86,98,8.95,IS,1699053988
161,tazovsky,67.4667,78.7,-7.31,94,100,9.15,RU,1699054018
162,bodaybo,57.8506,114.1933,-24.84,99,51,0.3,RU,1699054315
163,weno,7.4515,151.8468,29.97,79,40,2.06,FM,1699053963
164,monrovia,6.3005,-10.7969,26.03,86,87,3.34,LR,1699054315
165,mhamid,29.82,-5.72,22.48,28,0,1.38,MA,1699054315
166,eyl,7.9803,49.8164,26.31,84,30,4.8,SO,1699054316
167,sanctuary point,-35.1114,150.629,19.3,81,100,2.94,AU,1699054316
168,amga,60.8953,131.9608,-25.62,99,100,1.12,RU,1699054316
169,comodoro rivadavia,-45.8667,-67.5,11.92,54,0,5.66,AR,1699054316
170,gunjur,13.2019,-16.7339,27.04,94,40,2.57,GM,1699054317
171,tazoult-lambese,35.4817,6.2607,8.53,82,100,3.42,DZ,1699054317
172,matheran,18.9833,73.2667,24.15,48,45,1.85,IN,1699054317
173,san antonio de pale,-1.4014,5.6325,26.21,85,100,4.16,GQ,1699054013
174,fale old settlement,-9.3852,-171.2468,26.95,81,100,9.18,TK,1699054076
175,floro,61.5996,5.0328,10.98,54,75,9.77,NO,1699054318
176,kapa'a,22.0752,-159.319,29.15,65,0,5.14,US,1699054318
177,sur,22.5667,59.5289,25.63,62,92,4.06,OM,1699054009
178,jamestown,42.097,-79.2353,13.77,32,0,5.14,US,1699053730
179,shalkar,47.8288,59.6258,8.3,56,96,1.93,KZ,1699054319
180,kruisfontein,-34.0033,24.7314,16.44,78,53,5.53,ZA,1699053994
181,taroa,8.7058,171.2275,28.28,79,100,6.58,MH,1699054319
182,qaqortoq,60.7167,-46.0333,-0.61,75,100,0.82,GL,1699053966
183,labrador city,52.9463,-66.9114,-0.05,93,100,6.69,CA,1699054320
184,cabedelo,-6.9811,-34.8339,26.37,81,62,5.99,BR,1699054320
185,barcelos,41.5388,-8.6151,17.08,93,100,8.27,PT,1699054284
186,askoy,60.4092,5.226,11.16,46,40,5.14,NO,1699054320
187,kerikeri,-35.2268,173.9474,22.17,70,7,0.45,NZ,1699054034
188,lipnik nad becvou,49.5272,17.5859,7.19,87,100,5.02,CZ,1699054321
189,dhidhdhoo,6.8833,73.1,27.74,74,69,1.65,MV,1699054022
190,sitka,57.0531,-135.33,9.94,87,100,2.06,US,1699054022
191,bolobo,-2.1667,16.2333,21.63,96,100,1.2,CD,1699054322
192,tidjikja,18.5564,-11.4271,27.2,17,0,4.91,MR,1699054322
193,whitehorse,60.7161,-135.0538,2.43,90,75,7.2,CA,1699053972
194,tamluk,22.3,87.9167,22.91,90,63,2.18,IN,1699054322
195,la passe,45.5549,-0.8967,12.77,74,100,7.18,FR,1699054323
196,richards bay,-28.783,32.0377,19.29,80,100,7.34,ZA,1699054011
197,amos,48.5669,-78.1162,1.4,97,100,4.35,CA,1699054324
198,olonkinbyen,70.9221,-8.7187,1.36,80,100,4.39,SJ,1699054005
199,polyarnyy,69.1989,33.4478,-8.83,93,27,2.26,RU,1699054325
200,hammerfest,70.6634,23.6821,-2.75,86,40,1.54,NO,1699054325
201,ust-nera,64.5667,143.2,-20.67,100,94,2.03,RU,1699054007
202,nikolayevsk-on-amure,53.1406,140.73,-9.56,53,39,7.23,RU,1699054063
203,saurimo,-9.6608,20.3916,18.08,96,33,0.29,AO,1699054326
204,chunskiy,56.0815,99.6342,-12.96,80,19,0.75,RU,1699054326
205,puerto rico,-26.796,-55.024,12.75,89,54,1.01,AR,1699054327
206,aden,12.7794,45.0367,27.32,74,83,5.22,YE,1699054148
207,maceio,-9.6658,-35.7353,25.69,94,20,4.12,BR,1699054172
208,christchurch,-43.5333,172.6333,19.67,67,20,6.69,NZ,1699054074
209,ekibastuz,51.6667,75.3667,2.86,90,100,4.25,KZ,1699054328
210,kandi,11.1342,2.9386,25.43,36,1,1.86,BJ,1699054329
211,bereznik,62.8551,42.7072,-6.32,98,93,0.93,RU,1699054027
212,winnemucca,40.973,-117.7357,21.03,30,0,1.54,US,1699054329
213,i-n-salah,27.1935,2.4607,26.86,12,0,2.82,DZ,1699054329
214,volokolamsk,56.0336,35.9694,1.06,88,3,3.72,RU,1699054131
215,fort mcmurray,56.7268,-111.381,-2.23,80,100,1.54,CA,1699053761
216,las khorey,11.1595,48.1967,26.7,85,82,3.36,SO,1699054027
217,makushino,55.2103,67.2442,4.21,94,65,4.85,RU,1699054330
218,belmonte,-15.8631,-38.8828,25.83,87,79,5.74,BR,1699054331
219,nema,57.5067,50.5011,-3.08,91,14,2.03,RU,1699054331
220,kone,-21.0595,164.8658,27.32,54,88,1.85,NC,1699054332
221,priargunsk,50.3691,119.1012,-12.57,65,99,0.78,RU,1699054332
222,axim,4.8699,-2.2405,25.76,89,40,3.68,GH,1699054293
223,sisimiut,66.9395,-53.6735,-4.72,86,95,4.5,GL,1699054017
224,tofol,5.3248,163.0078,27.88,83,100,1.54,FM,1699054053
225,kodiak,57.79,-152.4072,7.73,93,100,5.66,US,1699054014
226,machico,32.7,-16.7667,20.4,84,40,2.57,PT,1699054334
227,constantia,44.1833,28.65,15.39,81,72,7.18,RO,1699053846
228,grand falls-windsor,48.9332,-55.6649,2.5,87,99,3.26,CA,1699054334
229,ribeira grande,38.5167,-28.7,17.1,83,100,2.68,PT,1699053982
230,iskateley,67.6803,53.1512,-4.43,95,20,4.92,RU,1699054047
231,ancud,-41.8697,-73.8203,10.24,79,94,3.25,CL,1699054070
232,merrill,45.1805,-89.6835,6.87,84,72,3.44,US,1699054335
233,klaksvik,62.2266,-6.589,8.51,87,100,8.71,FO,1699054336
234,mao,39.8885,4.2658,17.31,45,54,6.69,ES,1699054336
235,armacao de buzios,-22.7469,-41.8817,24.74,87,0,9.52,BR,1699054159
236,mahibadhoo,3.7833,72.9667,27.55,78,96,4.52,MV,1699054337
237,raduzhny,62.0961,77.475,-3.95,94,100,7.82,RU,1699054337
238,waverly,42.7392,-84.6208,12.3,45,100,9.77,US,1699054060
239,alvear,-29.0968,-56.5504,13.95,73,81,5.79,AR,1699054337
240,moyynkum,44.2914,72.9469,10.36,77,46,7.49,KZ,1699054338
241,margaret river,-33.95,115.0667,18.11,58,34,3.6,AU,1699053982
242,sikonge,-5.6333,32.7667,20.8,73,100,1.23,TZ,1699054338
243,uturoa,-16.7333,-151.4333,26.2,79,49,7.59,PF,1699054023
244,carbonear,47.7332,-53.2148,5.34,87,100,4.16,CA,1699054339
245,la sarre,48.8002,-79.1996,-0.08,93,100,4.06,CA,1699054339
246,serowe,-22.3833,26.7167,17.23,56,81,5.32,BW,1699054340
247,san antonio oeste,-40.7319,-64.9477,16.88,32,14,5.16,AR,1699054340
248,antsiranana,-12.2787,49.2917,24.31,89,52,3.91,MG,1699054282
249,tura,25.5198,90.2201,19.03,81,0,1.36,IN,1699054340
250,arraial do cabo,-22.9661,-42.0278,24.52,88,0,11.29,BR,1699053891
251,barra,-11.0894,-43.1417,27.15,68,90,1.86,BR,1699054341
252,tiksi,71.6872,128.8694,-17.44,96,99,3.62,RU,1699053973
253,tralee,52.2704,-9.7026,7.18,89,99,3.14,IE,1699054021
254,prado,-17.3411,-39.2208,25.67,85,59,6.69,BR,1699054342
255,kuta,-8.7233,115.1723,25.97,94,75,0.51,ID,1699053964
256,petropavlovsk-kamchatsky,53.0452,158.6483,4.14,64,75,6.26,RU,1699054057
257,road town,18.4167,-64.6167,28.02,78,40,6.69,VG,1699054065
258,haiku-pauwela,20.9219,-156.3051,28.98,66,40,8.23,US,1699054017
259,hithadhoo,-0.6,73.0833,27.04,82,48,6.31,MV,1699054021
260,teknaf,20.8624,92.3058,23.0,83,5,1.75,BD,1699054343
261,baturaja,-4.1333,104.1667,26.05,82,71,0.8,ID,1699054343
262,mejit,10.2753,170.8646,27.72,81,30,8.49,MH,1699054000
263,kyelang,32.5833,77.0333,-9.74,67,2,3.09,IN,1699054344
264,manokwari,-0.8667,134.0833,26.83,82,100,0.81,ID,1699054344
265,asau,46.4333,26.4,12.51,74,100,1.52,RO,1699054344
266,kongolo,-5.3833,27.0,19.3,99,98,0.39,CD,1699054345
267,mollendo,-17.0231,-72.0147,18.22,79,55,1.17,PE,1699054345
268,malango,-2.9627,119.9001,21.28,90,98,0.39,ID,1699053984
269,mumbwa,-14.9783,27.0619,19.81,53,39,3.2,ZM,1699054346
270,kainantu,-6.2887,145.8655,20.26,80,100,1.86,PG,1699054346
271,gejiu,23.306,103.1635,11.53,95,37,1.59,CN,1699054346
272,selma,36.5708,-119.6121,26.86,29,0,0.0,US,1699054343
273,takai,11.5833,9.1167,24.53,28,54,3.19,NG,1699054347
274,villamontes,-21.25,-63.5,17.91,63,100,2.04,BO,1699054347
275,vadso,70.0744,29.7487,-5.91,79,20,6.17,NO,1699054007
276,holualoa,19.6228,-155.9522,26.91,78,40,4.63,US,1699053736
277,okoneshnikovo,54.8377,75.0834,-0.4,89,100,7.12,RU,1699054348
278,carnarvon,-24.8667,113.6333,20.92,86,59,2.01,AU,1699053995
279,utrik,11.2278,169.8474,27.69,81,37,8.72,MH,1699053999
280,camabatela,-8.1881,15.375,16.94,100,80,1.05,AO,1699054349
281,port sudan,19.6175,37.2164,28.45,73,19,1.44,SD,1699054349
282,mambajao,9.2504,124.7156,28.14,80,83,3.45,PH,1699054350
283,bardai,11.65,7.2333,23.87,28,43,2.83,NG,1699054350
284,murray,40.6669,-111.888,18.74,44,0,3.6,US,1699054118
285,salinopolis,-0.6136,-47.3561,27.76,79,40,6.27,BR,1699054034
286,magnitogorsk,53.4186,59.0472,7.46,70,100,5.0,RU,1699054351
287,ilek,51.5271,53.3831,4.99,90,74,3.17,RU,1699054352
288,acapulco de juarez,16.8634,-99.8901,28.6,77,65,3.4,MX,1699053741
289,veinticinco de mayo,-35.4323,-60.1727,11.1,86,30,1.27,AR,1699054352
290,nuuk,64.1835,-51.7216,-0.66,86,100,2.06,GL,1699053730
291,ierapetra,35.01,25.7353,21.75,82,23,4.08,GR,1699054353
292,kuraymah,18.55,31.85,26.79,26,3,4.17,SD,1699054353
293,alo,7.4178,6.7371,24.4,93,100,1.79,NG,1699054353
294,horta,38.5333,-28.6333,16.68,83,99,2.68,PT,1699054015
295,campbell river,50.0163,-125.2446,10.89,100,100,4.12,CA,1699054345
296,el porvenir,13.7617,-87.3458,22.63,82,100,2.35,HN,1699054354
297,lazaro cardenas,17.9583,-102.2,28.6,79,50,2.8,MX,1699053869
298,san patricio,28.017,-97.5169,25.3,58,60,5.31,US,1699054059
299,lerwick,60.1545,-1.1494,8.0,84,100,4.04,GB,1699054355
300,puerto deseado,-47.7503,-65.8938,8.81,68,51,8.06,AR,1699054295
301,zeya,53.75,127.2667,-14.73,52,11,1.49,RU,1699054355
302,luanda,-8.8368,13.2343,25.0,88,75,2.06,AO,1699054271
303,santa cruz,-17.8,-63.1667,23.03,46,75,7.72,BO,1699054356
304,linares,-35.85,-71.6,13.5,78,5,2.26,CL,1699054356
305,mukalla,14.5425,49.1242,25.29,76,88,1.94,YE,1699054356
306,gadzhiyevo,69.2551,33.3362,-8.83,93,31,2.3,RU,1699053980
307,tuzantla,19.2029,-100.5668,27.66,77,54,0.45,MX,1699054357
308,sidney,-33.8679,151.2073,22.2,68,51,0.89,AU,1699054199
309,dalnegorsk,44.5604,135.5701,-2.49,26,61,2.63,RU,1699054357
310,meadow lake,34.8014,-106.5436,22.44,20,4,0.97,US,1699054358
311,jand,33.4299,72.0193,20.19,41,1,0.49,PK,1699054358
312,berezovyy,51.6667,135.7,-10.37,39,0,5.82,RU,1699054358
313,acajutla,13.5928,-89.8275,27.02,74,98,3.11,SV,1699054222
314,manismata,-2.4667,111.0333,24.17,97,100,0.63,ID,1699054359
315,mersa matruh,31.3525,27.2453,21.11,56,0,0.0,EG,1699054359
316,bethanie,-26.4833,17.15,17.47,39,28,1.86,NA,1699054360
317,guerrero negro,27.9769,-114.0611,25.84,35,0,5.71,MX,1699054029
318,ciudad melchor muzquiz,27.8833,-101.5167,19.63,49,2,3.61,MX,1699054360
319,santa rosalia,27.3167,-112.2833,26.32,34,0,2.9,MX,1699054360
320,kabinda,-6.1333,24.4833,18.9,99,100,1.24,CD,1699054361
321,suva,-18.1416,178.4415,30.71,70,75,5.14,FJ,1699054361
322,guiglo,6.5456,-7.4966,23.05,97,90,1.33,CI,1699054361
323,saldanha,-33.0117,17.9442,15.03,87,65,3.75,ZA,1699053973
324,fortuna,40.5982,-124.1573,23.29,83,20,4.63,US,1699054021
325,kavieng,-2.5744,150.7967,28.79,72,99,3.64,PG,1699054362
326,chonchi,-42.6128,-73.8092,11.18,78,100,1.05,CL,1699053991
327,sumbuya,7.6467,-11.9611,24.06,97,61,1.27,SL,1699054362
328,ca mau,9.1769,105.15,25.61,93,100,1.67,VN,1699054362
329,vilyuysk,63.7553,121.6247,-24.92,100,97,1.08,RU,1699054363
330,zouerate,22.7187,-12.4521,22.98,34,0,3.44,MR,1699054363
331,el calafate,-50.3408,-72.2768,8.77,61,65,2.83,AR,1699054363
332,santyoku,37.4406,129.1708,14.86,90,100,4.23,KR,1699054363
333,boa vista,2.8197,-60.6733,31.99,55,40,2.06,BR,1699054364
334,villa canas,-34.0057,-61.6076,14.97,76,3,1.47,AR,1699054364
335,otjiwarongo,-20.4637,16.6477,18.82,38,81,2.98,NA,1699054364
336,san juan de miraflores,-12.1629,-76.9635,19.54,79,62,3.46,PE,1699054365
337,inarajan village,13.2736,144.7484,30.55,86,97,7.61,GU,1699054365
338,maxixe,-23.8597,35.3472,20.11,67,94,3.2,MZ,1699054365
339,bom jardim,-7.7958,-35.5872,22.76,81,59,2.06,BR,1699054366
340,illapel,-31.6308,-71.1653,19.89,43,0,0.73,CL,1699054366
341,rikaze,29.25,88.8833,-1.4,47,52,1.4,CN,1699054366
342,udachny,66.4167,112.4,-24.2,75,96,1.3,RU,1699053968
343,alice springs,-23.7,133.8833,25.75,17,85,8.23,AU,1699054367
344,dryden,49.7833,-92.7503,-4.84,68,0,3.09,CA,1699054367
345,lengshuitan,26.4111,111.5956,19.56,62,98,2.75,CN,1699054367
346,angaur state,6.906,134.13,28.76,73,90,3.53,PW,1699054367
347,el alto,-4.2714,-81.2147,22.81,80,7,8.07,PE,1699054071
348,al muwayh,22.4333,41.7583,22.91,42,68,2.66,SA,1699054368
349,al mijlad,11.0333,27.7333,30.73,37,99,2.18,SD,1699054072
350,enewetak,11.3474,162.3373,27.76,79,82,6.8,MH,1699053679
351,betare oya,5.6,14.0833,19.56,98,100,1.44,CM,1699054368
352,ishigaki,24.3448,124.1572,27.07,74,75,5.14,JP,1699054368
353,quellon,-43.1167,-73.6167,10.57,81,100,3.61,CL,1699054011
354,lorengau,-2.0226,147.2712,27.84,79,99,1.54,PG,1699054369
355,yigo village,13.5361,144.8886,29.62,78,75,7.2,GU,1699054369
356,sinop,41.7711,34.8709,14.75,59,25,4.84,TR,1699054369
357,arar,30.9753,41.0381,20.01,45,0,3.6,SA,1699054369
358,kuanda,56.3161,116.0806,-22.9,92,18,0.26,RU,1699054370
359,porto novo,6.4965,2.6036,28.9,84,100,3.3,BJ,1699053977
360,salalah,17.0151,54.0924,25.05,73,0,1.54,OM,1699054370
361,misratah,32.3754,15.0925,26.31,31,51,7.89,LY,1699054370
362,ovruch,51.3246,28.8035,8.99,83,98,6.76,UA,1699054371
363,cole harbour,44.6724,-63.4751,8.17,84,39,8.49,CA,1699054371
364,coquimbo,-29.9533,-71.3436,15.85,82,0,5.14,CL,1699053797
365,isangel,-19.55,169.2667,27.06,69,75,2.06,VU,1699054371
366,kismayo,-0.3582,42.5454,24.66,87,100,3.38,SO,1699054371
367,susuman,62.7833,148.1667,-16.68,97,98,1.34,RU,1699054007
368,port-cartier,50.0334,-66.8654,7.12,77,100,8.57,CA,1699054086
369,ulundi,-28.3352,31.4162,15.57,93,100,2.5,ZA,1699054372
370,luganville,-15.5333,167.1667,27.27,81,100,5.26,VU,1699054372
371,sirsa,29.5333,75.0167,20.54,37,2,2.19,IN,1699054373
372,portalegre,39.2938,-7.4312,12.09,90,84,5.06,PT,1699054373
373,cloverdale,38.8055,-123.0172,29.56,48,59,1.79,US,1699054373
374,puttalam,8.0362,79.8283,24.81,90,100,3.28,LK,1699054373
375,minab,27.1467,57.0801,25.8,72,2,1.36,IR,1699054374
376,san sebastian de la gomera,28.0916,-17.1133,23.54,56,0,3.6,ES,1699054374
377,banes,20.9625,-75.7186,26.22,82,0,4.83,CU,1699054374
378,greymouth,-42.4667,171.2,13.93,83,71,4.04,NZ,1699054010
379,sechura,-5.5569,-80.8222,21.07,70,20,7.74,PE,1699054375
380,glace bay,46.1969,-59.957,7.21,77,100,2.24,CA,1699054297
381,rongelap,11.1635,166.8941,28.17,74,100,8.25,MH,1699054010
382,gorgan,36.8387,54.4348,11.98,94,0,0.0,IR,1699054375
383,shimokizukuri,40.8061,140.3861,12.75,90,100,3.77,JP,1699054376
384,bubaque,11.2833,-15.8333,28.02,80,22,5.5,GW,1699054060
385,mahina,-17.5065,-149.489,27.87,69,75,1.54,PF,1699054211
386,puerto leguizamo,-0.1934,-74.7819,24.41,92,76,0.47,CO,1699054376
387,vigan,17.5747,120.3869,27.3,76,17,1.7,PH,1699054377
388,hell-ville,-13.4,48.2667,25.68,81,99,4.08,MG,1699054377
389,ilinge,-31.9768,27.0427,18.98,67,100,0.71,ZA,1699054377
390,coeur d'alene,47.6777,-116.7805,12.52,68,20,2.57,US,1699054378
391,san antonio,29.4241,-98.4936,24.59,49,20,4.63,US,1699054177
392,timimoun,29.2639,0.231,23.21,16,0,2.06,DZ,1699054378
393,palmer,42.1584,-72.3287,9.23,53,40,3.6,US,1699054378
394,molchanovo,57.5817,83.7692,-7.98,81,100,6.41,RU,1699054378
395,kailua-kona,19.6406,-155.9956,28.98,78,40,4.63,US,1699054126
396,bandraboua,-12.7044,45.1223,27.82,79,82,5.18,YT,1699054379
397,taco pozo,-25.6167,-63.2833,16.17,45,0,1.81,AR,1699054379
398,port isabel,26.0734,-97.2086,25.05,57,0,4.63,US,1699054379
399,karratha,-20.7377,116.8463,30.59,30,13,4.96,AU,1699053962
400,san nicolas,18.1725,120.5953,25.95,89,20,2.06,PH,1699054380
401,cidreira,-30.1811,-50.2056,16.19,83,59,11.29,BR,1699054380
402,puerto baquerizo moreno,-0.9,-89.6,24.56,72,69,4.48,EC,1699054019
403,hailar,49.2,119.7,-14.31,77,100,2.35,CN,1699054380
404,muncar,-8.4333,114.3333,27.35,76,48,0.96,ID,1699054381
405,ust-tsilma,65.441,52.1498,-5.22,94,36,4.02,RU,1699054073
406,conception bay south,47.4999,-52.9981,4.3,84,100,3.54,CA,1699053908
407,opuwo,-18.0607,13.84,21.23,33,47,1.67,NA,1699053979
408,hazaribagh,23.9833,85.35,18.35,83,1,1.01,IN,1699054382
409,kapuskasing,49.4169,-82.4331,-0.95,86,75,5.14,CA,1699054007
410,boumerdas,36.7664,3.4772,16.08,63,73,8.79,DZ,1699054382
411,scarborough,54.2797,-0.4044,7.76,91,53,0.89,GB,1699054257
412,kaka,37.3482,59.6143,17.34,25,99,1.0,TM,1699054383
413,san luis de la loma,17.2706,-100.8939,27.12,86,27,1.09,MX,1699054383
414,pimentel,-6.8367,-79.9342,21.16,73,0,9.26,PE,1699054383
415,port saint john's,-31.6229,29.5448,20.4,87,91,3.85,ZA,1699054034
416,mwatate,-3.5029,38.3795,17.86,91,100,1.95,KE,1699054384
417,horice,50.3661,15.6318,7.21,87,100,5.21,CZ,1699054384
418,greenland,43.0362,-70.8328,11.59,52,75,2.57,US,1699054385
419,sovata,46.5833,25.0667,11.87,85,100,1.43,RO,1699054385
420,funafuti,-8.5243,179.1942,31.0,84,75,0.84,TV,1699054103
421,nanlong,31.3533,106.0631,14.9,77,87,1.93,CN,1699054386
422,mossel bay,-34.1831,22.146,16.96,87,58,4.23,ZA,1699054016
423,linxia chengguanzhen,35.6003,103.2064,5.93,66,86,1.35,CN,1699054386
424,colonia,50.9333,6.95,9.42,77,75,4.12,DE,1699054387
425,corner brook,48.9667,-57.9484,1.09,89,82,2.4,CA,1699054210
426,taltal,-25.4,-70.4833,16.33,77,24,1.27,CL,1699054387
427,labytnangi,66.6572,66.4183,-6.99,92,100,4.11,RU,1699054008
428,valparaiso,-33.0393,-71.6273,21.8,56,0,7.72,CL,1699053960
429,chrysoupolis,40.9856,24.6939,21.61,90,100,1.9,GR,1699054388
430,kharabali,47.4196,47.2568,9.7,73,98,3.21,RU,1699054388
431,fort st. john,56.2499,-120.8529,1.94,80,75,1.54,CA,1699053963
432,sefrou,33.8319,-4.828,12.53,94,75,2.06,MA,1699054389
433,adrar,20.5022,-10.0711,24.19,28,0,4.86,MR,1699054389
434,nar'yan-mar,67.6713,53.087,-4.38,95,22,4.92,RU,1699053987
435,peterhead,57.5058,-1.7981,8.22,83,57,5.56,GB,1699054070
436,wenling,28.3669,121.36,22.02,88,92,0.95,CN,1699054390
437,harper,4.375,-7.7169,25.64,88,17,3.08,LR,1699054032
438,kota tinggi,1.7381,103.8999,27.86,68,96,0.75,MY,1699054391
439,simpang,-1.2667,104.0833,25.57,92,100,1.14,ID,1699054391
440,edmundston,47.3737,-68.3251,6.63,52,100,5.66,CA,1699054391
441,nova vicosa,-17.8919,-39.3719,25.96,83,85,6.95,BR,1699053981
442,zaltan,32.947,11.8665,22.87,43,94,5.11,LY,1699054392
443,chilaw,7.5758,79.7953,24.01,85,100,2.31,LK,1699054392
444,loa janan,-0.583,117.095,23.92,98,98,0.42,ID,1699054392
445,junin,-34.5838,-60.9433,12.72,82,8,0.09,AR,1699054393
446,araripe,-7.2125,-40.0461,23.92,61,68,1.62,BR,1699054268
447,poronaysk,49.2167,143.1167,-2.74,49,12,7.11,RU,1699054393
448,fortaleza,-3.7227,-38.5247,28.07,78,20,4.12,BR,1699054200
449,kalabo,-14.97,22.6814,24.65,52,71,1.26,ZM,1699054394
450,saint croix,17.7397,-64.7388,28.25,78,0,4.12,VI,1699054394
451,tyuratam,45.6507,63.3156,6.93,61,70,3.25,KZ,1699054394
452,arawa,-6.2132,155.5367,29.65,74,91,1.82,PG,1699054395
453,cockburn town,21.4612,-71.1419,28.27,77,74,10.17,TC,1699054042
454,maragogi,-9.0122,-35.2225,25.76,82,65,3.65,BR,1699054395
455,gutierrez zamora,20.45,-97.0833,25.9,88,94,2.99,MX,1699054395
456,tindouf,27.6711,-8.1474,19.25,59,0,6.17,DZ,1699054072
457,moree,-29.4667,149.85,24.93,51,29,7.62,AU,1699054396
458,punta cana,18.5818,-68.4043,26.87,89,75,4.12,DO,1699054396
459,bull savanna,17.8868,-77.5902,25.36,86,62,5.7,JM,1699054397
460,dawei,14.0833,98.2,25.04,89,84,1.3,MM,1699054397
461,moose jaw,50.4001,-105.5344,1.14,80,100,4.12,CA,1699054398
462,freetown,8.484,-13.2299,26.22,84,16,2.14,SL,1699054398
463,taman',45.2117,36.7161,14.68,88,49,7.8,RU,1699054398
464,kipushi,-11.7667,27.2333,18.75,79,95,1.86,CD,1699054399
465,cuito,-12.3833,16.9333,16.67,84,45,1.37,AO,1699054399
466,shache,38.4167,77.2406,7.62,28,0,1.41,CN,1699054399
467,odacho-oda,35.1833,132.5,14.43,76,68,2.54,JP,1699054399
468,nashik,19.9833,73.8,19.5,47,57,2.32,IN,1699054400
469,santa marta de ortigueira,43.6833,-7.85,14.58,51,100,3.13,ES,1699054400
470,peace river,56.2501,-117.286,2.17,86,100,1.54,CA,1699054187
471,demyansk,57.643,32.466,4.58,75,19,4.85,RU,1699054401
472,buala,-8.145,159.5921,29.01,74,84,2.83,SB,1699054401
473,hadibu,12.65,54.0333,26.01,78,53,3.71,YE,1699053988
474,khorinsk,52.1657,109.7726,-11.89,77,36,1.33,RU,1699054401
475,igarka,67.4667,86.5833,-8.46,93,100,12.8,RU,1699054402
476,trenggalek,-8.05,111.7167,27.01,78,64,2.24,ID,1699054402
477,mpraeso,6.5932,-0.7346,21.64,95,88,1.58,GH,1699054402
478,kolonia town,6.964,158.206,29.06,83,100,2.57,FM,1699054403
479,yuzhno-kurilsk,44.0306,145.8556,11.32,83,100,7.91,RU,1699054025
480,nguigmi,14.2495,13.1092,27.43,25,22,3.73,NE,1699054403
481,ghadamis,30.1337,9.5007,23.47,17,56,3.76,LY,1699054016
482,kaele,10.1092,14.4508,26.48,65,98,2.81,CM,1699054404
483,puerto armuelles,8.2833,-82.8667,27.27,75,97,4.47,PA,1699054404
484,baynjiwayn,35.6183,45.9541,11.11,85,6,0.37,IQ,1699054404
485,lhasa,29.65,91.1,-0.51,77,31,1.85,CN,1699054404
486,sos'va,59.1766,61.8558,1.14,85,80,4.92,RU,1699054405
487,rafsanjan,30.4067,55.9939,14.47,65,54,0.42,IR,1699054064
488,zhezqazghan,47.7833,67.7667,7.09,88,82,3.36,KZ,1699054405
489,bonthe,7.5264,-12.505,25.46,90,4,2.03,SL,1699054050
490,cannonvale,-20.2833,148.7,26.66,69,57,4.32,AU,1699054406
491,nyurba,63.2842,118.3319,-17.76,98,100,1.38,RU,1699054406
492,novo aripuana,-5.1206,-60.3797,29.06,54,67,0.82,BR,1699054406
493,shingu,33.7333,135.9833,21.42,67,3,0.52,JP,1699054407
494,kiselevsk,53.99,86.6621,-18.83,98,89,2.25,RU,1699054407
495,mantua,45.1667,10.7833,10.53,90,22,2.24,IT,1699054407
496,orange walk,17.8333,-88.8333,23.41,96,98,2.01,BZ,1699054407
497,patacamaya,-17.2333,-67.9167,11.06,68,53,6.15,BO,1699054408
498,ad dilam,23.9915,47.1627,24.23,56,42,2.34,SA,1699054408
499,tabora,-5.0167,32.8,20.43,76,100,1.38,TZ,1699054408
500,woodland park,40.8898,-74.1949,11.99,60,0,4.12,US,1699054408
501,ferkessedougou,9.6,-5.2,25.89,69,50,2.82,CI,1699054409
502,kanuru,16.2858,81.2546,26.34,83,79,3.63,IN,1699054409
503,north bend,43.4065,-124.2243,19.02,100,100,2.06,US,1699054409
504,kokkola,63.8385,23.1307,0.52,97,75,4.63,FI,1699054410
505,natal,-5.795,-35.2094,27.36,78,40,5.14,BR,1699053932
506,susanville,40.4163,-120.653,19.91,33,0,1.54,US,1699054410
507,callao,-12.0667,-77.15,20.95,73,40,3.6,PE,1699053802
508,puerto quijarro,-17.7833,-57.7667,23.03,64,21,4.5,BO,1699054411
509,brookings,44.3114,-96.7984,7.32,60,0,2.57,US,1699053746
510,chashniki,54.8569,29.1607,6.37,85,43,8.59,BY,1699054411
511,bantogon,6.5333,124.0333,28.39,72,72,1.15,PH,1699054411
512,katsuura,35.1333,140.3,22.87,67,6,7.13,JP,1699054412
513,leesville,31.1435,-93.261,23.13,31,0,2.06,US,1699054154
514,playa del ingles,27.7567,-15.5787,22.86,70,27,4.22,ES,1699054210
515,remire-montjoly,4.9167,-52.2667,29.02,79,0,3.09,GF,1699053962
516,varzea da palma,-17.5981,-44.7308,23.28,79,100,1.09,BR,1699054413
517,ta`u,-14.2336,-169.5144,26.72,82,80,10.6,AS,1699053997
518,saint-pierre,-21.3393,55.4781,23.09,88,75,1.54,RE,1699054413
519,ak'ordat,15.5486,37.8867,26.83,59,84,0.58,ER,1699054414
520,curuzu cuatia,-29.7917,-58.0546,12.57,76,78,4.89,AR,1699054414
521,stanthorpe,-28.6667,151.95,19.12,75,94,2.8,AU,1699054414
522,thames,-37.1333,175.5333,19.31,52,8,3.47,NZ,1699054414
523,arris,35.2588,6.3471,7.11,79,100,2.33,DZ,1699054415
524,makoua,0.0069,15.6333,21.58,99,100,1.01,CG,1699054415
525,quang ngai,15.1167,108.8,24.9,87,77,1.83,VN,1699054415
526,bridgewater,44.3835,-64.5155,7.79,75,25,1.54,CA,1699054152
527,rabaul,-4.1967,152.1721,27.74,75,100,2.24,PG,1699054416
528,rawlins,41.7911,-107.2387,10.94,37,20,8.75,US,1699054416
529,kinablangan,7.6947,126.5503,27.86,81,76,1.29,PH,1699054417
530,ormara,25.2088,64.6357,26.39,68,98,6.13,PK,1699054417
531,tafuna,-14.3358,-170.72,30.97,79,75,9.77,AS,1699054058
532,hemsby,52.6971,1.6918,8.13,97,15,6.47,GB,1699054417
533,troitsko-pechorsk,62.7084,56.1964,-6.28,85,100,6.26,RU,1699054418
534,tadine,-21.55,167.8833,23.19,64,97,5.41,NC,1699054418
535,uray,60.1247,64.7758,-0.63,81,57,5.81,RU,1699054418
536,princeville,45.7668,-61.2985,7.95,92,75,3.09,CA,1699054418
537,suizhou,31.7111,113.3631,15.73,72,100,2.54,CN,1699054419
538,ciudad madero,22.2667,-97.8333,24.11,73,100,0.0,MX,1699054419
539,gaspe,48.8334,-64.4819,7.95,56,20,6.17,CA,1699053777
540,bereket,39.2446,55.5154,17.82,26,99,2.96,TM,1699054420
541,yokadouma,3.5167,15.05,21.02,100,100,1.11,CM,1699054420
542,mabaruma,8.2,-59.7833,26.18,81,100,2.28,GY,1699053992
543,mokhsogollokh,61.4681,128.9203,-25.96,99,73,1.43,RU,1699054420
544,kill devil hills,36.0307,-75.676,16.66,84,0,3.6,US,1699054308
545,sinabang,2.4803,96.3801,25.52,89,99,2.34,ID,1699054046
546,asentamiento humano nicolas de pierola,-11.95,-76.7,13.41,60,48,1.44,PE,1699054421
547,baruun-urt,46.6806,113.2792,-5.28,96,100,1.83,MN,1699054053
548,saint-joseph,-21.3667,55.6167,22.48,86,55,1.45,RE,1699054422
549,tamanrasset,22.785,5.5228,17.95,17,0,1.54,DZ,1699054422
550,sabang,5.8933,95.3214,27.19,79,99,3.65,ID,1699054422
551,tolentino,43.2126,13.2901,13.23,69,67,2.12,IT,1699054422
552,santa vitoria do palmar,-33.5189,-53.3681,11.86,90,100,10.3,BR,1699054423
553,promissao,-21.5367,-49.8581,23.06,84,70,4.94,BR,1699054423
554,huarmey,-10.0681,-78.1522,19.93,78,28,4.32,PE,1699054042
555,katsuren-haebaru,26.3369,127.8719,25.01,88,40,6.17,JP,1699054423
556,port moresby,-9.4431,147.1797,27.47,73,100,2.11,PG,1699054424
557,awjilah,29.1081,21.2869,23.6,31,0,3.3,LY,1699054424
558,revda,56.801,59.9303,-1.91,87,82,5.26,RU,1699054424
559,east london,-33.0153,27.9116,20.13,91,100,0.94,ZA,1699053991
560,howrah,22.5892,88.3103,24.0,88,40,1.54,IN,1699054424
561,zhalantun,48.0,122.7167,-13.05,80,80,0.58,CN,1699054425
562,pasan,22.85,82.2,17.28,72,42,1.5,IN,1699054425
563,ust'-ilimsk,58.0006,102.6619,-14.87,75,46,1.34,RU,1699054425
564,fomboni,-12.28,43.7425,26.77,77,89,6.51,KM,1699054425
565,omaruru,-21.4333,15.9333,18.5,45,28,1.88,NA,1699054426
566,egilsstadir,65.2653,-14.3948,3.95,87,100,7.72,IS,1699054426
567,bikaner,28.0167,73.3,25.09,23,63,4.07,IN,1699054426
568,margate,51.3813,1.3862,7.39,90,50,7.92,GB,1699054426
569,kagizman,40.1567,43.1342,6.15,85,72,1.26,TR,1699054426
570,yemva,62.59,50.8594,-3.48,88,67,3.85,RU,1699054427
571,cabo san lucas,22.8909,-109.9124,30.9,57,0,5.14,MX,1699053695
572,golhisar,37.1459,29.5088,12.79,72,89,2.73,TR,1699054427
573,alofi,-19.0595,-169.9187,26.94,69,75,16.0,NU,1699054428
574,ullal,12.8,74.85,25.53,88,75,1.54,IN,1699054428
575,phan thiet,10.9333,108.1,26.09,83,50,1.48,VN,1699054428
576,guozhen,34.3659,107.359,10.85,81,23,0.3,CN,1699054428
577,port augusta,-32.5,137.7667,22.51,29,0,4.29,AU,1699054291
578,gebze,40.8028,29.4307,21.53,60,0,5.14,TR,1699054429
579,kaesong,37.9708,126.5544,14.09,75,100,3.81,KP,1699054429
580,warrnambool,-38.3833,142.4833,12.67,60,88,8.29,AU,1699053967
581,acarau,-2.8856,-40.12,26.71,81,23,7.73,BR,1699053912
582,ljusdal,61.8288,16.0913,3.96,100,100,3.75,SE,1699054429
583,newnan,33.3807,-84.7997,14.1,70,0,0.0,US,1699054309
584,al kharijah,25.4514,30.5464,23.17,31,0,2.73,EG,1699054430
585,agenebode,7.106,6.6966,24.07,94,97,1.25,NG,1699054430
586,pyhajarvi,67.0701,27.2176,-14.72,100,100,1.63,FI,1699054430
587,fairfield,41.2668,-73.3162,11.25,65,0,6.69,US,1699054322
588,mikuni,36.2171,136.1519,15.95,63,72,2.8,JP,1699054431
589,coxen hole,16.3244,-86.5366,24.6,94,100,2.06,HN,1699054431
590,auki,-8.7676,160.7034,28.35,79,89,0.56,SB,1699054431
591,touros,-5.1989,-35.4608,26.11,83,81,5.22,BR,1699054003
592,puerto aysen,-45.4,-72.7,7.61,99,100,1.85,CL,1699054432
593,hamois,50.3348,5.1512,8.04,84,88,7.58,BE,1699054432
594,nizhniy odes,63.6445,54.856,-6.99,93,98,4.57,RU,1699054432
595,khalkhal,37.6189,48.5258,9.54,81,100,2.47,IR,1699054432
596,gedo,9.0167,37.45,9.49,89,23,0.93,ET,1699054433
597,selfoss,63.9331,-20.9971,2.25,65,58,6.14,IS,1699054042
598,champerico,14.3,-91.9167,30.3,77,100,1.41,GT,1699054433
599,gillette,44.2911,-105.5022,11.7,57,32,0.45,US,1699054433
600,maysville,38.6412,-83.7444,13.88,35,0,2.06,US,1699054433
601,east ballina,-28.8667,153.5833,21.0,74,96,4.54,AU,1699054434
602,lobujya,27.95,86.8167,-13.72,64,0,0.93,NP,1699054434
