City_ID,City,Lat,Lng,Max Temp,Humidity,Cloudiness,Wind Speed,Country,Date
0,grytviken,-54.2811,-36.5092,2.01,99,100,3.58,GS,1699928006
1,waitangi,-43.9535,-176.5597,13.25,89,3,9.11,NZ,1699928007
2,tarawa,1.419,172.984,30.05,79,75,3.09,KI,1699928007
3,arraial do cabo,-22.9661,-42.0278,23.76,89,76,4.26,BR,1699927765
4,zadar,44.1197,15.2422,14.34,94,40,2.57,HR,1699928007
5,casper,42.8666,-106.3131,12.12,21,0,4.92,US,1699927977
6,tiksi,71.6872,128.8694,-15.62,95,100,2.4,RU,1699928008
7,kazerun,29.6195,51.6541,16.77,38,5,1.32,IR,1699928008
8,fortuna,40.5982,-124.1573,13.88,92,100,0.0,US,1699928008
9,georgetown,5.4112,100.3354,29.97,79,20,0.0,MY,1699927779
10,khenchela,35.4358,7.1433,11.64,55,0,1.68,DZ,1699928009
11,pudasjarvi,65.3833,26.9167,-9.54,91,58,2.92,FI,1699928009
12,kalemie,-5.9475,29.1947,20.81,92,94,1.1,CD,1699928009
13,nadi,-17.8,177.4167,30.0,70,75,5.66,FJ,1699928009
14,talnakh,69.4865,88.3972,-19.44,98,50,3.89,RU,1699928010
15,hadibu,12.65,54.0333,26.29,86,79,4.86,YE,1699928010
16,bilibino,68.0546,166.4372,-28.14,100,100,1.67,RU,1699927969
17,udachny,66.4167,112.4,-5.86,85,100,3.76,RU,1699928011
18,puerto natales,-51.7236,-72.4875,1.74,84,93,5.03,CL,1699927877
19,iqaluit,63.7506,-68.5145,-17.95,64,0,2.57,CA,1699928011
20,ola,59.5833,151.2833,-17.7,73,74,5.57,RU,1699928011
21,bethel,41.3712,-73.414,4.25,82,40,0.0,US,1699927839
22,rio grande,-32.035,-52.0986,18.86,93,100,4.09,BR,1699928012
23,la ronge,55.1001,-105.2842,1.14,75,100,5.14,CA,1699928012
24,stanley,54.868,-1.6985,8.77,91,20,5.66,GB,1699928012
25,ilulissat,69.2167,-51.1,-3.99,63,100,5.66,GL,1699928013
26,tazovsky,67.4667,78.7,-21.0,100,22,2.5,RU,1699928013
27,braniewo,54.3797,19.8196,4.4,82,100,5.88,PL,1699928013
28,adamstown,-25.066,-130.1015,22.78,85,100,7.8,PN,1699928013
29,margaret river,-33.95,115.0667,17.97,71,100,5.03,AU,1699928014
30,anadyr,64.75,177.4833,-12.72,71,10,15.0,RU,1699928014
31,ad dawadimi,24.5077,44.3924,18.64,44,100,4.75,SA,1699928014
32,chibougamau,49.9168,-74.3659,-5.21,93,100,3.6,CA,1699928015
33,novodvinsk,64.4165,40.8122,-3.45,91,95,2.87,RU,1699928015
34,gudauta,43.1055,40.6207,18.59,65,100,1.84,GE,1699928015
35,badger,64.8,-147.5333,-3.07,91,100,0.0,US,1699928015
36,hinton,53.4001,-117.5857,-1.67,90,100,1.67,CA,1699928016
37,hamilton,39.1834,-84.5333,11.54,48,20,0.89,US,1699927773
38,port-aux-francais,-49.35,70.2167,6.71,97,100,15.92,TF,1699928016
39,port mathurin,-19.6833,63.4167,25.26,78,1,2.66,MU,1699928016
40,albany,42.6001,-73.9662,2.07,81,82,0.97,US,1699927896
41,saipan,15.1355,145.701,31.39,70,40,8.75,MP,1699928017
42,blackmans bay,-43.0167,147.3167,16.96,43,15,5.62,AU,1699928017
43,kapuskasing,49.4169,-82.4331,0.61,98,100,3.88,CA,1699927770
44,ust-nera,64.5667,143.2,-27.86,97,56,2.37,RU,1699928017
45,pervomayskiy,53.2485,40.2871,4.2,83,100,6.72,RU,1699928018
46,naze,28.3667,129.4833,17.24,56,80,3.35,JP,1699928018
47,choibalsan,48.0667,114.5,-10.8,82,7,2.35,MN,1699928018
48,fu'an,27.0892,119.6453,14.26,70,90,0.33,CN,1699927765
49,kapa'a,22.0752,-159.319,29.99,80,40,7.2,US,1699928019
50,cabo san lucas,22.8909,-109.9124,28.2,61,20,2.57,MX,1699927809
51,papatowai,-46.5619,169.4708,17.77,47,70,5.72,NZ,1699928019
52,qaqortoq,60.7167,-46.0333,-6.68,95,90,0.81,GL,1699928019
53,grenaa,56.4158,10.8783,6.12,92,100,14.26,DK,1699928020
54,mamuju,-2.6748,118.8885,29.72,69,100,1.42,ID,1699928020
55,mejit,10.2753,170.8646,27.74,80,96,7.76,MH,1699928020
56,longyearbyen,78.2186,15.6401,-10.09,85,75,4.12,SJ,1699927852
57,rosarito,32.3333,-117.0333,19.95,61,75,0.68,MX,1699928021
58,san patricio,28.017,-97.5169,17.13,89,100,5.56,US,1699928022
59,benghazi,32.1167,20.0667,21.48,64,1,5.4,LY,1699928023
60,ushuaia,-54.8,-68.3,-2.79,97,82,0.89,AR,1699927898
61,feltre,46.0235,11.907,7.55,84,38,1.46,IT,1699927866
62,port elizabeth,-33.918,25.5701,15.73,86,71,2.24,ZA,1699927850
63,talara,-4.5772,-81.2719,22.42,83,75,8.23,PE,1699928023
64,tamanrasset,22.785,5.5228,15.95,25,0,1.03,DZ,1699928024
65,olonkinbyen,70.9221,-8.7187,-1.55,71,98,3.02,SJ,1699928024
66,iskateley,67.6803,53.1512,-11.1,88,100,4.02,RU,1699928024
67,kuanda,56.3161,116.0806,-11.83,72,49,0.27,RU,1699928025
68,las lomitas,-24.7096,-60.593,20.37,87,100,2.79,AR,1699928025
69,toliara,-23.35,43.6667,21.0,84,7,4.12,MG,1699928025
70,constantia,44.1833,28.65,3.38,53,59,4.09,RO,1699928025
71,obama,35.4958,135.746,13.31,71,100,2.37,JP,1699928026
72,robinson,31.4677,-97.1147,16.6,64,20,2.57,US,1699928026
73,prado,-17.3411,-39.2208,24.46,83,29,6.17,BR,1699928026
74,lamu,-2.2717,40.902,24.12,83,11,2.85,KE,1699928026
75,magadan,59.5667,150.8,-18.04,72,77,5.21,RU,1699927924
76,old town,50.087,14.4202,10.56,86,20,5.66,CZ,1699928027
77,nizhnesortymskiy,62.4397,71.7603,-9.75,92,100,5.17,RU,1699928027
78,kenai,60.5544,-151.2583,0.05,82,0,4.12,US,1699927811
79,tsiombe,-25.3,45.4833,21.4,85,90,3.17,MG,1699928027
80,bad sooden-allendorf,51.2833,9.9833,11.45,74,69,3.13,DE,1699928028
81,thaton,16.9206,97.3714,27.45,76,74,2.22,MM,1699928028
82,kailua-kona,19.6406,-155.9956,29.72,74,40,4.63,US,1699927743
83,khovd,48.0056,91.6419,-4.7,82,100,1.32,MN,1699928028
84,alesund,62.4723,6.1549,3.75,75,20,1.54,NO,1699928028
85,hermanus,-34.4187,19.2345,15.42,77,16,8.98,ZA,1699928029
86,st. john's,47.5649,-52.7093,-0.02,82,100,2.57,CA,1699928029
87,ribeira grande,38.5167,-28.7,15.99,85,100,2.24,PT,1699928029
88,queenstown,-31.8976,26.8753,9.82,85,81,3.23,ZA,1699928029
89,miranda do douro,41.4969,-6.2731,10.92,96,100,2.52,PT,1699928030
90,invercargill,-46.4,168.35,13.9,85,84,6.26,NZ,1699927748
91,whitehorse,60.7161,-135.0538,-4.57,79,100,2.06,CA,1699928030
92,east london,-33.0153,27.9116,15.85,73,97,3.02,ZA,1699927814
93,recani,31.2846,-4.2688,19.3,28,100,0.8,MA,1699928031
94,punta arenas,-53.15,-70.9167,1.73,74,50,5.19,CL,1699927797
95,la sarre,48.8002,-79.1996,0.45,98,100,4.23,CA,1699928031
96,birao,10.2849,22.7882,24.23,69,15,1.55,CF,1699928031
97,hawaiian paradise park,19.5933,-154.9731,26.04,78,100,2.57,US,1699928031
98,rio gallegos,-51.6226,-69.2181,4.04,49,15,8.46,AR,1699928032
99,isafjordur,66.0755,-23.124,1.57,86,46,2.8,IS,1699928032
100,kapit,2.0167,112.9333,30.29,69,93,0.41,MY,1699928032
101,codrington,-38.2667,141.9667,16.0,60,100,4.07,AU,1699928033
102,puerto ayora,-0.7393,-90.3518,23.64,97,100,2.24,EC,1699928033
103,luderitz,-26.6481,15.1594,15.62,78,0,1.92,NA,1699927867
104,fale old settlement,-9.3852,-171.2468,26.46,87,100,4.31,TK,1699928033
105,edinburgh of the seven seas,-37.0676,-12.3116,13.47,79,10,12.21,SH,1699927836
106,horta,38.5333,-28.6333,15.57,87,100,2.24,PT,1699927928
107,necochea,-38.5473,-58.7368,14.46,49,86,6.34,AR,1699928034
108,ciudad madero,22.2667,-97.8333,23.11,94,100,0.0,MX,1699928034
109,makokou,0.5738,12.8642,20.68,99,59,0.6,GA,1699928034
110,afaahiti,-17.75,-149.2833,27.93,89,91,6.02,PF,1699928034
111,mount pearl,47.5166,-52.7813,-0.48,82,100,2.57,CA,1699928035
112,bredasdorp,-34.5322,20.0403,14.94,78,10,7.77,ZA,1699928035
113,vadso,70.0744,29.7487,-5.91,86,100,5.66,NO,1699928035
114,bengkulu,-3.8004,102.2655,27.48,78,79,0.85,ID,1699928036
115,antsiranana,-12.2787,49.2917,23.49,87,53,2.84,MG,1699928036
116,port lavaca,28.615,-96.6261,17.21,95,100,5.66,US,1699928036
117,labasa,-16.4167,179.3833,28.58,79,100,5.64,FJ,1699928036
118,thompson,55.7435,-97.8558,-1.91,86,75,1.54,CA,1699928036
119,sitka,57.0531,-135.33,3.94,87,100,2.57,US,1699927969
120,kudahuvadhoo,2.6708,72.8944,27.44,74,93,1.4,MV,1699928037
121,alice springs,-23.7,133.8833,33.75,14,4,3.6,AU,1699928037
122,uva,56.9908,52.1852,5.61,88,100,6.07,RU,1699928037
123,klyuchi,52.2667,79.1667,2.74,94,96,3.62,RU,1699928038
124,richfield,44.8833,-93.283,9.18,50,75,4.12,US,1699928038
125,dudinka,69.4058,86.1778,-23.48,93,10,2.34,RU,1699927781
126,reggane,26.7158,0.1714,21.58,23,5,5.1,DZ,1699927802
127,giado,31.9582,12.0203,13.32,87,0,0.94,LY,1699928038
128,keflavik,64.0049,-22.5624,8.24,61,0,6.69,IS,1699928039
129,harstad,68.799,16.5293,-2.69,65,5,1.37,NO,1699927749
130,laguna,38.421,-121.4238,16.71,66,0,0.0,US,1699927958
131,manay,7.215,126.5397,30.18,62,28,2.55,PH,1699928039
132,college,64.8569,-147.8028,-3.03,89,100,0.0,US,1699928040
133,geraldton,-28.7667,114.6,25.23,65,75,4.12,AU,1699928040
134,yomju-up,39.8933,124.5981,3.38,41,100,0.92,KP,1699928040
135,uturoa,-16.7333,-151.4333,27.18,82,49,7.41,PF,1699928040
136,west fargo,46.875,-96.9004,11.0,47,0,9.26,US,1699927779
137,aquin,18.2833,-73.4,26.51,82,24,1.83,HT,1699928041
138,murun-kuren,49.6342,100.1625,-6.45,72,100,1.15,MN,1699928041
139,zhanaozen,43.3,52.8,10.03,43,4,6.57,KZ,1699928042
140,yellowknife,62.456,-114.3525,-4.71,100,100,3.6,CA,1699928042
141,al hayy,32.1735,46.0433,20.62,38,9,0.53,IQ,1699928042
142,new norfolk,-42.7826,147.0587,17.62,34,7,3.34,AU,1699928042
143,qui nhon,13.7667,109.2333,26.53,87,94,6.4,VN,1699928043
144,manta,-0.95,-80.7333,23.88,88,75,3.6,EC,1699927668
145,rumoi,43.9344,141.6428,2.54,78,75,2.64,JP,1699928043
146,genhe,50.7833,121.5167,-9.2,75,95,1.3,CN,1699927763
147,ketchikan,55.3422,-131.6461,4.99,80,0,0.0,US,1699928044
148,hammerfest,70.6634,23.6821,-0.75,93,100,0.0,NO,1699928045
149,kendari,-3.945,122.4989,32.45,56,41,1.38,ID,1699928045
150,santarem,-2.4431,-54.7083,28.07,69,66,2.57,BR,1699928045
151,biloela,-24.4167,150.5,33.61,28,0,4.17,AU,1699928046
152,vila velha,-20.3297,-40.2925,25.97,86,0,6.69,BR,1699927758
153,tianpeng,30.9866,103.9393,10.91,82,100,1.38,CN,1699928046
154,fougamou,-1.2154,10.5838,24.27,99,97,0.71,GA,1699928046
155,remire-montjoly,4.9167,-52.2667,26.02,89,0,1.03,GF,1699928047
156,luganville,-15.5333,167.1667,25.42,77,100,6.67,VU,1699928047
157,dien bien phu,21.3833,103.0167,20.0,90,95,0.97,VN,1699928047
158,mil'kovo,55.6078,37.7956,4.12,89,100,5.56,RU,1699928047
159,martapura,-3.4167,114.85,33.05,62,20,2.06,ID,1699928048
160,gargalianoi,37.0667,21.6333,14.64,77,4,3.37,GR,1699928048
161,al wajh,26.2455,36.4525,22.97,64,0,2.06,SA,1699928048
162,alupka,44.4167,34.05,8.03,88,66,1.46,UA,1699928049
163,muang khong,14.1167,105.85,27.9,69,72,1.77,LA,1699928049
164,igrim,63.1906,64.4162,-5.28,94,100,5.12,RU,1699928049
165,flying fish cove,-10.4217,105.6791,26.82,78,100,4.63,CX,1699928049
166,noyabrsk,63.1994,75.4507,-12.65,92,100,3.58,RU,1699928050
167,mundybash,53.211,87.2983,0.75,98,100,3.72,RU,1699928050
168,baymak,52.5933,58.3225,1.53,78,100,6.65,RU,1699928050
169,tonj,7.2737,28.6822,24.8,74,100,1.3,SS,1699928050
170,concordia,-31.393,-58.0209,17.1,99,74,4.02,AR,1699927832
171,nova sintra,14.8667,-24.7167,23.78,72,100,5.64,CV,1699928051
172,ancud,-41.8697,-73.8203,6.27,72,34,4.06,CL,1699928051
173,potsdam,52.3989,13.0657,10.05,89,88,6.89,DE,1699927809
174,mudgee,-32.5943,149.5871,28.77,17,24,2.86,AU,1699928052
175,stillwater,36.1156,-97.0584,15.31,59,0,0.0,US,1699927979
176,akjoujt,19.6969,-14.4164,25.97,18,27,3.2,MR,1699928052
177,coos bay,43.3665,-124.2179,12.18,82,0,1.54,US,1699927924
178,aasiaat,68.7098,-52.8699,-10.59,82,100,1.48,GL,1699928053
179,palopo,-2.9996,120.1921,30.5,58,10,2.02,ID,1699928053
180,praia da vitoria,38.7333,-27.0667,16.53,100,20,0.62,PT,1699928054
181,mata-utu,-13.2816,-176.1745,29.03,74,88,4.19,WF,1699928054
182,impfondo,1.6381,18.0667,21.82,99,85,1.21,CG,1699928054
183,santyoku,37.4406,129.1708,9.17,30,50,0.9,KR,1699928054
184,rio verde de mato grosso,-18.9181,-54.8442,29.63,33,7,2.69,BR,1699928055
185,utrik,11.2278,169.8474,28.17,81,100,7.94,MH,1699928055
186,opuwo,-18.0607,13.84,23.63,27,38,0.62,NA,1699928055
187,corowa,-36.0333,146.3833,16.34,77,100,4.55,AU,1699928055
188,enewetak,11.3474,162.3373,28.41,79,74,8.85,MH,1699928056
189,mutoko,-17.397,32.2268,16.68,65,34,2.24,ZW,1699928056
190,dukhan,25.4297,50.7858,24.78,63,8,2.2,QA,1699928056
191,devonport,-41.1667,146.35,20.29,57,59,1.34,AU,1699928056
192,kingscliff,-28.2667,153.5667,26.08,65,56,4.63,AU,1699928057
193,penzance,50.1186,-5.5371,13.38,88,74,12.93,GB,1699928057
194,charters towers,-20.1,146.2667,32.67,22,0,6.18,AU,1699928057
195,lerwick,60.1545,-1.1494,7.51,73,78,5.44,GB,1699928057
196,mount gambier,-37.8333,140.7667,15.38,60,100,2.23,AU,1699928058
197,bilbays,30.4204,31.5622,21.46,92,0,2.82,EG,1699928058
198,fort st. john,56.2499,-120.8529,-7.06,93,0,3.09,CA,1699928058
199,robertsport,6.7533,-11.3686,27.25,80,100,1.32,LR,1699928058
200,kapenguria,1.2511,35.0895,13.62,84,76,1.32,KE,1699928059
201,gebeit,21.0667,36.3167,24.55,70,100,1.77,SD,1699928059
202,port lincoln,-34.7333,135.8667,16.96,69,64,4.91,AU,1699928059
203,lebu,-37.6167,-73.65,9.66,89,43,2.95,CL,1699928059
204,belyy yar,53.6039,91.3903,2.94,75,0,7.0,RU,1699928060
205,uliastay,47.7417,96.8444,-8.51,95,100,1.05,MN,1699928060
206,suva,-18.1416,178.4415,26.71,89,100,4.12,FJ,1699928060
207,gadzhiyevo,69.2551,33.3362,-8.99,97,91,1.16,RU,1699928060
208,varadero,23.1536,-81.2514,23.42,74,11,6.39,CU,1699928061
209,rouyn-noranda,48.2398,-79.0288,1.05,93,100,4.63,CA,1699928038
210,west island,-12.1568,96.8225,27.99,74,40,5.66,CC,1699928061
211,anchau,10.9597,8.3916,22.03,22,100,1.74,NG,1699928062
212,kingston,17.997,-76.7936,27.89,84,3,1.25,JM,1699927837
213,gazli,40.1333,63.45,6.68,43,100,5.16,UZ,1699928062
214,tocantins,-10.5,-48.0,25.16,31,0,1.25,BR,1699928062
215,hithadhoo,-0.6,73.0833,27.23,80,53,4.22,MV,1699928063
216,zvishavane,-20.3267,30.0665,16.86,85,54,4.31,ZW,1699928063
217,boguchany,58.3814,97.4531,1.03,97,100,4.47,RU,1699928063
218,broome,42.2506,-75.833,4.44,80,40,2.06,US,1699928063
219,kayar,14.9192,-17.1211,24.53,64,55,6.41,SN,1699928063
220,katsuura,35.1333,140.3,14.49,42,0,1.34,JP,1699928064
221,howard springs,-12.497,131.047,33.26,58,30,2.14,AU,1699928064
222,saudarkrokur,65.7461,-19.6394,-1.57,83,10,4.18,IS,1699928064
223,kodiak,57.79,-152.4072,5.73,49,0,6.69,US,1699928064
224,kerikeri,-35.2268,173.9474,18.32,55,100,4.83,NZ,1699927850
225,nar'yan-mar,67.6713,53.087,-11.05,88,100,4.02,RU,1699928065
226,rongelap,11.1635,166.8941,28.19,82,100,7.43,MH,1699928065
227,la passe,45.5549,-0.8967,15.55,96,100,5.81,FR,1699928065
228,hilton,43.2881,-77.7933,10.08,72,12,5.81,US,1699928066
229,juan griego,11.0817,-63.9655,26.15,88,96,5.43,VE,1699928066
230,el nido,11.1858,119.3956,28.47,78,100,9.03,PH,1699928066
231,tabou,4.423,-7.3528,25.34,90,3,2.31,CI,1699928067
232,vorgashor,67.5833,63.95,-13.36,89,100,3.64,RU,1699928067
233,paita,-5.0892,-81.1144,20.48,83,9,7.12,PE,1699928067
234,copala,16.65,-98.9833,26.8,81,36,2.56,MX,1699928068
235,cidreira,-30.1811,-50.2056,20.15,97,100,1.86,BR,1699928068
236,dakhla,23.6848,-15.958,21.67,57,79,4.04,EH,1699928068
237,port alfred,-33.5906,26.891,16.48,67,94,5.23,ZA,1699928068
238,ma'rib,15.4591,45.3253,20.57,42,65,2.72,YE,1699928069
239,sechura,-5.5569,-80.8222,20.95,78,11,7.1,PE,1699928069
240,mount isa,-20.7333,139.5,37.87,14,0,5.14,AU,1699928069
241,carnarvon,-24.8667,113.6333,21.77,67,100,3.09,AU,1699928070
242,saint-joseph,-21.3667,55.6167,22.21,79,50,2.66,RE,1699928070
243,brisas de zicatela,15.8369,-97.0419,27.6,75,96,1.52,MX,1699928070
244,las heras,-46.5419,-68.9359,7.22,27,100,10.53,AR,1699928070
245,hami,42.8,93.45,3.41,28,86,2.59,CN,1699927888
246,calp,38.6447,0.0445,18.7,70,46,0.24,ES,1699928071
247,chifeng,42.2683,118.9636,-0.4,47,6,2.03,CN,1699928071
248,acapulco de juarez,16.8634,-99.8901,29.9,74,0,4.63,MX,1699928071
249,jiwani,25.05,61.7417,25.43,38,56,3.27,PK,1699928072
250,tolanaro,-25.0319,46.9987,21.0,81,46,2.0,MG,1699928072
251,coquimbo,-29.9533,-71.3436,14.81,75,2,1.85,CL,1699927997
252,colonia menno,-22.3667,-59.8167,25.86,82,100,5.34,PY,1699928073
253,porto murtinho,-21.6989,-57.8825,28.45,62,99,1.09,BR,1699927787
254,brigantine,39.4101,-74.3646,7.79,76,41,0.45,US,1699927821
255,aykhal,66.0,111.5,-8.83,93,100,4.36,RU,1699928073
256,kuta,-8.7233,115.1723,28.97,88,75,4.12,ID,1699928074
257,eyl,7.9803,49.8164,26.64,79,27,5.45,SO,1699928074
258,peniche,39.3558,-9.3811,16.36,91,98,2.54,PT,1699928074
259,cabrero,-37.0333,-72.4,8.2,76,5,2.47,CL,1699928074
260,isangel,-19.55,169.2667,28.06,61,75,6.17,VU,1699928075
261,gao,16.6362,1.637,23.09,16,0,5.3,ML,1699927776
262,cannonvale,-20.2833,148.7,26.66,53,0,4.56,AU,1699928075
263,jamestown,42.097,-79.2353,9.77,81,0,4.12,US,1699927839
264,fort mcmurray,56.7268,-111.381,-3.23,86,100,3.09,CA,1699928041
265,caglayancerit,37.7496,37.2962,10.11,97,100,1.04,TR,1699928076
266,el calafate,-50.3408,-72.2768,3.53,58,93,4.71,AR,1699928076
267,metahara,8.9,39.9167,22.26,71,79,0.84,ET,1699928076
268,baiti,13.745,-14.7482,26.51,16,74,2.76,SN,1699928076
269,bereznik,62.8551,42.7072,0.34,99,100,1.22,RU,1699928077
270,kavieng,-2.5744,150.7967,28.73,67,96,1.71,PG,1699928077
271,hof,50.3167,11.9167,8.75,87,71,5.66,DE,1699928077
272,atbara,17.7022,33.9864,27.89,48,57,1.17,SD,1699928077
273,saint-pierre,-21.3393,55.4781,22.82,56,40,3.6,RE,1699928078
274,lihue,21.9789,-159.3672,29.58,75,40,7.2,US,1699927836
275,kasane,-17.8167,25.15,23.86,31,80,2.66,BW,1699928078
276,corner brook,48.9667,-57.9484,-0.91,94,45,1.15,CA,1699927925
277,inirida,3.8653,-67.9239,24.75,90,100,1.23,CO,1699928023
278,saint augustine beach,29.8505,-81.2654,20.01,88,100,8.23,US,1699928079
279,weno,7.4515,151.8468,30.97,74,100,3.6,FM,1699928079
280,san luis de la loma,17.2706,-100.8939,26.91,82,14,2.5,MX,1699928079
281,la'ie,21.6477,-157.9253,28.98,77,66,3.58,US,1699928080
282,vilyuysk,63.7553,121.6247,-13.39,96,100,2.16,RU,1699928080
283,uyuni,-20.4597,-66.825,10.41,20,1,4.56,BO,1699928080
284,lundazi,-12.2929,33.1782,20.11,79,40,4.18,ZM,1699928080
285,antonio enes,-16.2325,39.9086,25.06,77,100,4.5,MZ,1699928081
286,sungai raya,0.7,108.9,30.29,65,93,1.22,ID,1699928081
287,pionerskiy,54.9508,20.2275,5.08,82,100,5.16,RU,1699928081
288,bardai,11.65,7.2333,21.21,23,99,3.32,NG,1699928081
289,nema,57.5067,50.5011,3.99,92,100,4.99,RU,1699928081
290,turpan,42.9333,89.1667,8.86,28,100,1.09,CN,1699928082
291,belmonte,-15.8631,-38.8828,25.02,80,5,5.17,BR,1699928082
292,iquitos,-3.7481,-73.2472,26.02,83,40,1.54,PE,1699928082
293,adrar,20.5022,-10.0711,22.45,19,3,4.68,MR,1699928082
294,susuman,62.7833,148.1667,-28.75,98,76,0.61,RU,1699928083
295,yuzhno-kurilsk,44.0306,145.8556,2.43,80,54,10.02,RU,1699928083
296,maceio,-9.6658,-35.7353,23.69,100,20,2.06,BR,1699928083
297,zacatepec,18.65,-99.2,26.47,71,15,0.92,MX,1699928083
298,kidal,18.4411,1.4078,23.51,16,0,4.72,ML,1699928084
299,gorontalo,0.5412,123.0595,31.31,63,38,1.3,ID,1699928084
300,seven pagodas,12.6264,80.1722,25.59,93,100,7.66,IN,1699928084
301,wanning,18.8003,110.3967,23.42,87,100,4.86,CN,1699928084
302,sisimiut,66.9395,-53.6735,-9.26,75,100,3.79,GL,1699928085
303,tambopata,-12.7333,-69.1833,26.83,70,90,0.95,PE,1699928085
304,trinidad,-14.8333,-64.9,30.54,48,52,1.97,BO,1699928085
305,atafu village,-8.5421,-172.5159,27.04,85,100,6.79,TK,1699928085
306,bossangoa,6.4926,17.4552,21.42,95,34,0.57,CF,1699928086
307,wailua homesteads,22.0669,-159.378,28.24,80,40,7.2,US,1699928086
308,mandiana,10.6333,-8.6833,22.88,22,54,2.08,GN,1699928086
309,chonchi,-42.6128,-73.8092,4.56,90,77,1.53,CL,1699928086
310,colonia,50.9333,6.95,12.36,74,75,8.23,DE,1699927958
311,khilok,51.3674,110.4676,-7.02,71,100,1.09,RU,1699928087
312,pleiku,13.9833,108.0,22.83,79,84,5.03,VN,1699928087
313,angaur state,6.906,134.13,28.77,75,77,4.92,PW,1699928087
314,zaozersk,69.4005,32.4476,-13.25,100,93,1.09,RU,1699928088
315,nemuro,43.3236,145.575,5.1,56,13,8.95,JP,1699928088
316,tokar,18.4254,37.729,28.16,74,8,2.96,SD,1699928088
317,zhaotong,27.3167,103.7167,7.85,89,100,0.79,CN,1699928088
318,pisco,-13.7,-76.2167,20.01,82,0,4.63,PE,1699928089
319,progreso,21.2833,-89.6667,26.73,88,100,5.8,MX,1699928089
320,puerto baquerizo moreno,-0.9,-89.6,23.65,83,100,4.56,EC,1699927961
321,urengoy,65.9667,78.3667,-22.2,100,13,1.97,RU,1699928089
322,yemetsk,63.4721,41.7941,-2.87,96,96,2.72,RU,1699928090
323,revda,56.801,59.9303,2.37,97,100,4.85,RU,1699928080
324,prince rupert,54.3161,-130.3201,6.83,71,40,3.09,CA,1699928091
325,port saint john's,-31.6229,29.5448,16.54,76,100,2.41,ZA,1699928092
326,pandan,14.0453,124.1694,27.55,85,96,7.05,PH,1699928092
327,vichuga,57.2128,41.9301,3.53,89,98,6.79,RU,1699928092
328,buka,40.8108,69.1986,7.19,40,0,1.93,UZ,1699928093
329,kiruna,67.8557,20.2251,-22.49,84,39,0.0,SE,1699928093
330,christiana,-27.914,25.1611,16.24,35,0,4.79,ZA,1699928032
331,vilyuchinsk,52.9306,158.4028,-2.26,68,100,2.62,RU,1699928093
332,floro,61.5996,5.0328,5.54,75,11,3.6,NO,1699928094
333,haiku-pauwela,20.9219,-156.3051,27.01,64,20,8.75,US,1699928094
334,niamtougou,9.7681,1.1053,23.22,32,15,1.34,TG,1699928094
335,selfoss,63.9331,-20.9971,6.69,73,98,7.98,IS,1699928094
336,laojunmiao,39.8333,97.7333,0.37,32,84,1.22,CN,1699928095
337,jayapura,-2.5333,140.7,30.66,68,90,0.63,ID,1699928095
338,jashpurnagar,22.9,84.15,17.97,70,100,1.34,IN,1699928095
339,chicoana,-25.1009,-65.5331,19.03,83,96,0.99,AR,1699928095
340,prineville,44.2999,-120.8345,8.9,83,100,0.45,US,1699927964
341,pallikondai,12.9167,78.9333,22.15,94,100,0.64,IN,1699928096
342,port isabel,26.0734,-97.2086,18.02,91,100,8.23,US,1699928096
343,shelbyville,35.4834,-86.4603,14.14,76,0,0.0,US,1699928096
344,al burayqah,30.4062,19.5739,22.19,61,0,6.14,LY,1699928097
345,khandyga,62.6667,135.6,-25.66,97,65,1.1,RU,1699927963
346,yaren,-0.5472,166.916,28.15,78,100,11.79,NR,1699928097
347,sao vicente,-23.9631,-46.3919,28.1,26,72,0.45,BR,1699928097
348,kurmuk,10.55,34.2833,23.95,66,2,1.04,SD,1699928098
349,calliope,-24.0,151.2,30.94,48,0,5.66,AU,1699928098
350,jesus de otoro,14.4833,-87.9833,22.58,99,100,1.67,HN,1699928098
351,kavaratti,10.5669,72.642,27.39,71,44,1.2,IN,1699928098
352,novoagansk,61.9449,76.6625,-13.41,95,100,1.3,RU,1699928008
353,saint-philippe,-21.3585,55.7679,22.77,79,54,3.15,RE,1699928099
354,oncativo,-31.9135,-63.682,13.71,62,0,3.2,AR,1699928099
355,piacabucu,-10.4056,-36.4344,24.31,86,91,3.02,BR,1699928099
356,palmer,42.1584,-72.3287,2.77,75,100,1.19,US,1699927819
357,leer,53.2316,7.461,12.19,87,58,2.24,DE,1699928100
358,huarmey,-10.0681,-78.1522,20.07,85,97,4.25,PE,1699928100
359,bac lieu,9.285,105.7244,28.14,80,100,7.36,VN,1699928100
360,mkushi,-13.6202,29.3939,19.06,75,53,0.97,ZM,1699928101
361,shihezi,44.3,86.0333,3.76,83,99,2.66,CN,1699928101
362,qiongshan,20.0058,110.3542,20.99,94,75,6.0,CN,1699928101
363,warrnambool,-38.3833,142.4833,19.64,68,100,3.7,AU,1699928102
364,daru,-9.0763,143.2092,29.05,59,28,4.06,PG,1699928102
365,samaniego,1.3385,-77.5957,18.07,94,55,1.51,CO,1699928102
366,tshabong,-26.05,22.45,22.06,16,10,5.15,BW,1699928103
367,chernushka,56.5072,56.0766,4.23,92,100,8.33,RU,1699928103
368,ust'-uda,54.1742,103.0304,-5.66,81,100,1.28,RU,1699928103
369,samitah,16.596,42.9444,27.9,70,14,2.5,SA,1699928104
370,huruta,8.15,39.35,14.5,88,94,2.27,ET,1699928104
371,yinchuan,38.4681,106.2731,3.02,20,3,0.6,CN,1699927855
372,wabag,-5.4781,143.7021,16.15,80,100,1.06,PG,1699928105
373,krasnyy chikoy,50.3643,108.7512,-8.65,73,100,0.77,RU,1699927958
374,camacupa,-12.0167,17.4833,18.17,83,81,0.87,AO,1699928105
375,kristiansund,63.1115,7.732,-0.64,69,20,1.54,NO,1699928106
376,campo formoso,-10.5075,-40.3214,23.1,36,2,2.12,BR,1699928106
377,nueva gerona,21.8833,-82.8,26.5,77,92,8.09,CU,1699928106
378,puerto aysen,-45.4,-72.7,2.49,98,100,2.36,CL,1699928107
379,vryburg,-26.9566,24.7284,16.91,17,0,3.6,ZA,1699928107
380,lata,40.1629,-8.3327,13.93,94,100,1.12,PT,1699928108
381,lucapa,-8.4192,20.7447,17.87,97,88,0.33,AO,1699928108
382,machali,-34.1833,-70.6667,12.24,69,1,1.41,CL,1699928108
383,mirnyy,62.5353,113.9611,-8.2,92,97,3.13,RU,1699928108
384,dire dawa,9.5931,41.8661,19.33,71,77,1.11,ET,1699928109
385,nikolayevsk-on-amure,53.1406,140.73,-5.81,84,100,3.6,RU,1699928109
386,bel ombre,-4.6167,55.4167,27.91,83,40,3.6,SC,1699928109
387,ngama,11.7833,17.1667,27.15,30,94,2.21,TD,1699928110
388,perleberg,53.0667,11.8667,11.03,84,96,7.78,DE,1699928110
389,avarua,-21.2078,-159.775,23.03,64,40,3.6,CK,1699928110
390,balabac,7.9868,117.0645,29.27,75,59,5.27,PH,1699928111
391,urrao,6.3152,-76.1342,15.77,98,81,0.65,CO,1699928111
392,san nicolas,18.1725,120.5953,29.95,70,75,5.66,PH,1699928111
393,pombas,17.1503,-25.0201,23.88,70,100,3.39,CV,1699928112
394,sirjan,29.452,55.6814,12.64,22,96,3.2,IR,1699928112
395,christchurch,-43.5333,172.6333,26.11,34,95,8.23,NZ,1699928102
396,ankang,32.68,109.0172,10.23,72,21,0.56,CN,1699928113
397,port shepstone,-30.7414,30.455,17.69,70,100,5.46,ZA,1699928036
398,madimba,-10.4,40.3333,25.24,90,53,1.77,TZ,1699927994
399,tindouf,27.6711,-8.1474,19.25,32,0,4.12,DZ,1699928114
400,petropavlovsk-kamchatsky,53.0452,158.6483,-3.08,74,0,12.52,RU,1699928114
401,nuuk,64.1835,-51.7216,-2.66,80,100,6.69,GL,1699928115
402,tartouss,34.889,35.8866,22.0,65,100,1.4,SY,1699928115
403,sant antoni de portmany,38.9807,1.3036,17.2,91,0,2.06,ES,1699928116
404,alofi,-19.0595,-169.9187,25.94,83,100,6.17,NU,1699928116
405,da nang,16.0678,108.2208,26.99,83,75,3.09,VN,1699928116
406,walvis bay,-22.9575,14.5053,15.74,87,66,2.06,NA,1699928117
407,lingig,8.0389,126.4125,29.7,69,23,1.59,PH,1699928117
408,cuauhtemoc,28.4167,-106.8667,10.59,69,68,4.76,MX,1699927872
409,padang,-0.9492,100.3543,29.03,84,55,1.13,ID,1699928118
410,blenheim,-41.516,173.9528,18.62,67,4,1.79,NZ,1699928035
411,bonthe,7.5264,-12.505,26.25,86,94,1.29,SL,1699928118
412,san carlos,9.6612,-68.5827,24.62,85,99,1.51,VE,1699928118
413,wynyard,-41.0,145.7167,19.28,38,78,2.77,AU,1699927990
414,chenaran,36.6455,59.1212,9.97,44,68,1.36,IR,1699928119
415,mersa matruh,31.3525,27.2453,20.11,88,0,4.12,EG,1699928119
416,egilsstadir,65.2653,-14.3948,1.95,93,75,1.03,IS,1699928010
417,rondonopolis,-16.4708,-54.6356,28.67,35,47,0.98,BR,1699928120
418,leeton,-34.5667,146.4,24.87,24,100,6.08,AU,1699928120
419,juneau,58.3019,-134.4197,2.0,97,100,6.17,US,1699927881
420,astrakhan,46.3497,48.0408,5.93,100,100,3.0,RU,1699928121
421,nishinoomote,30.7333,131.0,17.31,67,20,4.12,JP,1699928122
422,pingliang,35.5392,106.6861,5.25,59,0,1.37,CN,1699928122
423,isla mujeres,21.2311,-86.731,27.03,84,100,6.24,MX,1699927872
424,lompoc,34.6391,-120.4579,15.94,76,0,2.68,US,1699928123
425,gizo,-8.103,156.8419,27.81,75,100,3.79,SB,1699928123
426,kamaishi,39.2667,141.8833,9.65,60,70,4.84,JP,1699928123
427,puerto colombia,10.9878,-74.9547,29.05,82,100,5.66,CO,1699928123
428,cockburn town,21.4612,-71.1419,28.04,76,14,8.69,TC,1699928124
429,nagqu,31.5,92.0,-6.16,33,100,2.08,CN,1699928124
430,nizhny tagil,57.9194,59.965,1.56,97,100,4.3,RU,1699928124
431,berezovyy,51.6667,135.7,-5.34,50,0,1.02,RU,1699928125
432,dhidhdhoo,6.8833,73.1,27.75,74,58,1.36,MV,1699928125
433,bhimunipatnam,17.8833,83.4333,25.73,76,100,3.56,IN,1699928125
434,lolodorf,3.2333,10.7333,20.74,98,60,0.93,CM,1699928125
435,waiuku,-37.25,174.75,18.81,61,100,4.22,NZ,1699927954
436,kaa-khem,51.6833,94.7333,-10.33,96,100,0.75,RU,1699928126
437,gurupi,-11.7292,-49.0686,29.27,39,92,1.59,BR,1699928126
438,klaksvik,62.2266,-6.589,7.51,73,46,10.65,FO,1699928127
439,prey veng,11.4868,105.3253,27.98,72,54,5.7,KH,1699928127
440,yung shue wan,22.2333,114.1167,20.34,74,100,0.89,HK,1699928127
441,kingsford,-33.924,151.2275,31.1,62,0,7.72,AU,1699928127
442,saint-pol-sur-ternoise,50.3811,2.3341,12.32,90,100,10.19,FR,1699928128
443,bodaybo,57.8506,114.1933,-7.06,94,100,1.12,RU,1699928128
444,north bend,43.4065,-124.2243,12.14,82,0,1.54,US,1699928128
445,yaritagua,10.08,-69.1261,23.08,93,100,1.22,VE,1699928128
446,qamdo,31.1667,97.2333,-2.22,42,52,2.68,CN,1699928129
447,nyurba,63.2842,118.3319,-11.43,97,100,2.51,RU,1699928129
448,miles city,46.4083,-105.8406,7.54,57,0,4.12,US,1699928129
449,yarmouth,41.7057,-70.2286,4.43,80,100,4.12,US,1699928130
450,rikaze,29.25,88.8833,1.83,55,43,0.9,CN,1699928130
451,guarapari,-20.6667,-40.4975,25.5,78,100,4.92,BR,1699928130
452,nadym,65.5333,72.5167,-15.14,95,100,4.11,RU,1699928130
453,nabire,-3.3667,135.4833,31.67,57,84,2.19,ID,1699928131
454,sanctuary point,-35.1114,150.629,25.18,66,99,3.58,AU,1699928131
455,baiyin,36.5583,104.2081,3.88,47,0,1.47,CN,1699928131
456,zhoushan,30.0108,122.2047,13.69,67,91,5.04,CN,1699928132
457,kyzyl-suu,42.3414,78.0056,-1.87,53,0,4.55,KG,1699928132
458,doka,13.5167,35.7667,25.69,45,5,4.03,SD,1699928132
459,fort bragg,35.139,-79.006,11.32,85,0,0.0,US,1699928132
460,karaman,37.0833,33.25,10.74,70,100,3.44,TR,1699928133
461,port-vila,-17.7338,168.3219,27.78,57,75,6.69,VU,1699928133
462,sparti,37.0733,22.4297,14.97,82,23,0.7,GR,1699927931
463,alta,69.9689,23.2717,-9.41,80,100,1.54,NO,1699928133
464,ponta delgada,37.7333,-25.6667,17.4,94,75,6.17,PT,1699928134
465,trashi yangtse,27.6116,91.498,15.35,55,25,0.63,BT,1699928134
466,laramie,41.3114,-105.5911,7.53,25,0,5.66,US,1699928135
467,steinbach,50.1667,8.5667,10.91,81,40,6.17,DE,1699928135
468,taybad,34.74,60.7756,11.5,42,74,0.44,IR,1699928135
469,minas de marcona,-15.2119,-75.1103,13.93,89,64,6.44,PE,1699927902
470,touros,-5.1989,-35.4608,26.59,80,90,5.0,BR,1699928136
471,lewistown,40.5992,-77.5714,10.67,43,0,0.0,US,1699928136
472,colares,38.7992,-9.4469,16.29,92,100,4.02,PT,1699928136
473,mazagao,-0.115,-51.2894,29.03,77,100,2.31,BR,1699928138
474,acajutla,13.5928,-89.8275,27.04,81,97,2.07,SV,1699928138
475,bikenibeu village,1.3673,173.1241,29.98,79,75,3.09,KI,1699928138
476,prainha,-1.8,-53.48,29.38,43,100,1.47,BR,1699928139
477,puerto varas,-41.3195,-72.9854,5.12,93,0,1.54,CL,1699928139
478,valparaiso,-33.0393,-71.6273,12.8,71,0,1.54,CL,1699927930
479,rudersberg,48.8852,9.5293,11.83,85,100,1.79,DE,1699928139
480,nantucket,41.2835,-70.0995,4.43,76,100,4.63,US,1699928074
481,sainte-suzanne,-20.9061,55.6089,23.12,73,0,2.57,RE,1699928140
482,seondha,26.1578,78.7797,20.22,48,100,0.57,IN,1699928140
483,pauini,-7.7136,-66.9764,24.92,85,18,1.12,BR,1699928141
484,mugia,43.1041,-9.2179,18.42,96,100,13.32,ES,1699928141
485,itoman,26.1247,127.6694,23.43,52,75,4.63,JP,1699928141
486,vondrozo,-22.8167,47.2833,19.75,87,83,0.6,MG,1699928141
487,bamboo flat,11.7,92.7167,26.05,94,100,1.54,IN,1699928142
488,kyabe,9.4515,18.9449,25.13,65,94,0.73,TD,1699928142
489,namibe,-15.1961,12.1522,23.17,62,100,1.49,AO,1699928142
490,tura,25.5198,90.2201,21.86,73,10,0.96,IN,1699928142
491,yei,4.095,30.6779,19.01,95,98,0.84,SS,1699928143
492,greenville,35.6127,-77.3663,6.01,100,0,0.0,US,1699928137
493,arsk,56.0915,49.8778,6.06,84,100,7.37,RU,1699928143
494,zheleznogorsk-ilimskiy,56.5768,104.1217,-5.35,93,100,3.13,RU,1699928143
495,mokshan,53.4365,44.6132,5.35,82,100,5.44,RU,1699928144
496,happy valley-goose bay,53.3168,-60.3315,-4.83,68,75,4.63,CA,1699928110
497,detroit lakes,46.8172,-95.8453,8.03,49,0,5.66,US,1699928144
498,bol,13.4586,14.7147,26.82,43,80,4.42,TD,1699928144
499,sur,22.5667,59.5289,23.67,52,6,0.11,OM,1699928145
500,wladyslawowo,54.7909,18.4009,5.3,93,100,7.75,PL,1699928006
501,macapa,0.0389,-51.0664,28.99,79,0,3.6,BR,1699928145
502,meadow lake,34.8014,-106.5436,10.71,66,0,1.06,US,1699928145
503,karratha,-20.7377,116.8463,28.66,35,3,6.46,AU,1699928145
504,sirur,18.8333,74.3833,22.3,51,100,1.6,IN,1699928146
505,kruisfontein,-34.0033,24.7314,11.96,90,59,2.79,ZA,1699928146
506,boa esperanca,-21.09,-45.5658,24.49,45,33,2.37,BR,1699928146
507,sabang,5.8933,95.3214,26.65,84,100,5.12,ID,1699928146
508,putian,25.4394,119.0103,15.57,62,98,2.28,CN,1699928147
509,jandiala guru,31.5614,75.0267,12.96,61,0,1.1,IN,1699928147
510,cascais,38.6979,-9.4215,16.39,92,97,4.02,PT,1699928147
511,nova vicosa,-17.8919,-39.3719,24.67,81,68,7.49,BR,1699928147
512,maibong,25.3,93.1667,21.35,70,12,1.02,IN,1699928148
513,vernon,50.2581,-119.2691,7.2,49,10,2.06,CA,1699928148
514,newman,37.3138,-121.0208,18.49,64,72,3.4,US,1699928148
515,khorixas,-20.3667,14.9667,25.89,32,76,2.2,NA,1699928148
516,shanwei,22.782,115.3475,18.76,64,82,3.37,CN,1699928148
517,frontera,26.9333,-101.45,13.83,94,100,1.98,MX,1699928149
518,nizhneudinsk,54.9076,99.0276,-2.74,82,100,1.78,RU,1699928149
519,odessa,46.4775,30.7326,8.01,70,0,2.94,UA,1699927991
520,ra's bayrut,33.9,35.4833,22.81,68,20,2.06,LB,1699928149
521,tyuratam,45.6507,63.3156,3.89,68,100,6.18,KZ,1699928150
522,nkhata bay,-11.6066,34.2907,23.19,83,23,1.51,MW,1699928150
523,guerrero negro,27.9769,-114.0611,20.44,57,100,4.66,MX,1699928150
524,gross kreutz,52.4,12.7833,10.03,83,99,7.69,DE,1699928150
525,ilha de mocambique,-15.0342,40.7358,25.57,85,100,4.15,MZ,1699928150
526,noumea,-22.2763,166.4572,26.99,60,30,8.29,NC,1699928110
527,kulhudhuffushi,6.6221,73.07,27.6,74,34,1.71,MV,1699928151
528,howrah,22.5892,88.3103,23.0,78,20,3.6,IN,1699928151
529,carepa,7.7585,-76.6525,27.88,83,20,1.54,CO,1699928151
530,seryshevo,51.0933,128.3786,-7.33,74,67,1.42,RU,1699928148
531,quesnel,52.9999,-122.5029,1.28,93,100,0.0,CA,1699928152
532,saint-sulpice-la-pointe,43.7742,1.6874,16.26,76,100,1.31,FR,1699928152
533,linxi,39.7,118.4333,4.8,30,14,2.61,CN,1699928152
534,male,4.1748,73.5089,27.97,83,75,2.06,MV,1699927948
535,mar del plata,-38.0023,-57.5575,15.61,55,0,6.26,AR,1699928153
536,peace river,56.2501,-117.286,-4.83,86,100,2.57,CA,1699928153
537,abalak,58.1286,68.5944,-0.92,95,100,4.66,RU,1699927957
538,masuguru,-11.3667,38.4167,25.14,82,100,0.35,TZ,1699928153
539,orbetello,42.4408,11.2196,11.01,91,100,3.1,IT,1699928154
540,caspe,41.234,-0.0395,16.98,64,53,2.53,ES,1699928154
541,ugoofaaru,5.6667,73.0,27.09,79,55,2.6,MV,1699928154
542,piti village,13.4626,144.6933,32.49,77,40,7.2,GU,1699928154
543,island harbour,50.724,-1.2758,14.4,86,69,3.13,GB,1699928155
544,tromso,69.6496,18.957,-8.99,86,58,0.51,NO,1699928155
545,calabozo,8.9242,-67.4293,26.15,74,60,1.68,VE,1699928155
546,tabuk,17.4189,121.4443,23.7,93,100,2.85,PH,1699928155
547,selcetta,41.764,12.4729,18.35,76,0,3.09,IT,1699928155
548,tailai,46.3833,123.4,0.65,44,7,2.7,CN,1699928157
549,san juan,-31.5375,-68.5364,17.74,23,0,3.3,AR,1699927873
550,diebougou,10.9667,-3.25,24.73,25,87,1.83,BF,1699928157
551,zhigalovo,54.8097,105.1578,-5.2,93,100,1.32,RU,1699928158
552,kone,-21.0595,164.8658,28.29,40,5,4.0,NC,1699928158
553,ciudad lazaro cardenas,17.9583,-102.2,27.1,79,52,2.5,MX,1699928049
554,margate,51.3813,1.3862,13.28,79,100,5.81,GB,1699927963
555,mermoz boabab,14.7065,-17.4758,24.31,69,61,8.29,SN,1699928082
556,ploudalmezeau,48.5333,-4.65,14.21,88,100,7.72,FR,1699928159
557,bayanhongor,46.7167,100.1167,-10.82,66,100,0.35,MN,1699928159
558,masterton,-40.9597,175.6575,17.16,46,94,6.83,NZ,1699927865
559,temryuk,45.2722,37.3811,7.12,88,100,9.05,RU,1699928160
560,backi petrovac,45.3606,19.5917,7.18,66,92,2.93,RS,1699928160
561,kotlas,61.2611,46.6556,2.81,98,100,4.47,RU,1699928160
562,ibiza,38.9088,1.433,17.11,91,0,2.06,ES,1699928160
563,sirte,31.2089,16.5887,22.47,68,100,5.77,LY,1699928160
564,lugus,5.7036,120.8203,28.32,76,84,0.46,PH,1699928161
565,kodungallur,10.2167,76.2167,26.0,81,97,1.59,IN,1699928161
566,ghat,24.9647,10.1728,17.67,42,0,2.22,LY,1699928135
567,drahichyn,52.1874,25.1597,1.9,83,99,3.36,BY,1699928161
568,bentota,6.4254,79.9948,25.38,88,100,1.22,LK,1699928162
569,san antonio de pale,-1.4014,5.6325,26.13,80,25,3.53,GQ,1699928162
570,yeppoon,-23.1333,150.7333,32.88,55,0,5.99,AU,1699928162
571,ulsteinvik,62.3432,5.8487,3.75,76,1,2.68,NO,1699928162
572,al qubbah,32.7616,22.2424,14.7,79,3,9.07,LY,1699928163
573,myeik,12.4333,98.6,27.96,75,38,2.37,MM,1699928163
574,kalamata,37.0389,22.1142,16.17,54,17,2.24,GR,1699928163
575,rio bueno,-40.3167,-72.9667,6.08,97,38,1.16,CL,1699928164
576,hasaki,35.7333,140.8333,17.38,35,0,3.42,JP,1699928164
577,oamaru,-45.0784,170.9801,14.99,74,31,4.23,NZ,1699928164
578,derry,54.9981,-7.3093,8.36,94,100,2.44,GB,1699928165
579,dunedin,-45.8742,170.5036,14.78,69,99,3.98,NZ,1699928165
580,nanakuli,21.3906,-158.1547,28.97,56,20,6.17,US,1699928165
